"artist_name","latitude","longitude","views","track_name","track_link","country_code","geo_name","geonameid","boundaries_admin_0","boundaries_admin_1","boundaries_postal_1"
"",-8.58333,116.11667,143000,"Mabruk Alfa Mabruk","17ZMj8azum0","ID","Mataram",1635882,"ID","IDA152","IDP183"
"",35.17531,33.3642,44800,"Ftes","PBoH5Bx_7Vg","CY","Nicosia",146268,"CY","CYA11","CYP119"
"",35.51124,24.02921,10500,"Rack - Davay","Ut38Ic3Ssgo","GR","Chaniá",260114,"GR","GRA1471",""
"",37.03913,22.11265,15300,"Rack - Davay","Ut38Ic3Ssgo","GR","Kalamata",261604,"GR","GRA1243",""
"",37.91033,23.72361,10000,"Rack - Davay","Ut38Ic3Ssgo","GR","Álimos",261614,"GR","GRA1351",""
"",37.97945,23.71622,402000,"Rack - Davay","Ut38Ic3Ssgo","GR","Athens",264371,"GR","GRA1351",""
"",38.0357,23.75733,14500,"Rack - Davay","Ut38Ic3Ssgo","GR","Néa Ionía",256614,"GR","GRA1351",""
"",38.05,23.8,19200,"Rack - Davay","Ut38Ic3Ssgo","GR","Maroúsi",265243,"GR","GRA1351",""
"",38.08333,23.73333,31700,"Rack - Davay","Ut38Ic3Ssgo","GR","Acharnés",265488,"GR","GRA1351",""
"",38.24444,21.73444,40100,"Rack - Davay","Ut38Ic3Ssgo","GR","Pátra",255683,"GR","GRA1242",""
"",39.55493,21.76837,13600,"Rack - Davay","Ut38Ic3Ssgo","GR","Tríkala",252664,"GR","GRA1231",""
"",39.63689,22.41761,35600,"Rack - Davay","Ut38Ic3Ssgo","GR","Lárisa",258576,"GR","GRA1231",""
"",40.64361,22.93086,131000,"Rack - Davay","Ut38Ic3Ssgo","GR","Thessaloníki",734077,"GR","GRA1112",""
"",48.75434,21.9195,10000,"HEĽENINE OČI - NAKA | Official video 2020","A3eWSytd8og","SK","Michalovce",724144,"SK","SKA18","SKP107"
"",48.89452,18.04436,10000,"HEĽENINE OČI - NAKA | Official video 2020","A3eWSytd8og","SK","Trenčín",3057140,"SK","SKA13","SKP191"
"",49.12153,18.42169,10000,"HEĽENINE OČI - NAKA | Official video 2020","A3eWSytd8og","SK","Považská Bystrica",3058060,"SK","SKA13","SKP101"
"",49.22315,18.73941,10000,"HEĽENINE OČI - NAKA | Official video 2020","A3eWSytd8og","SK","Žilina",3056508,"SK","SKA15","SKP101"
"--",50.14734,14.10285,10000,"Planeta Zombie","TRsDgmNzo2w","CZ","Kladno",3073699,"CZ","CZA120","CZP127"
"--",50.6404,13.82451,10000,"Planeta Zombie","TRsDgmNzo2w","CZ","Teplice",3064288,"CZ","CZA142","CZP141"
"--",50.72431,15.17108,10000,"Planeta Zombie","TRsDgmNzo2w","CZ","Jablonec nad Nisou",3074603,"CZ","CZA151","CZP146"
"--",50.76711,15.05619,10000,"Planeta Zombie","TRsDgmNzo2w","CZ","Liberec",3071961,"CZ","CZA151","CZP146"
"5MIINUST, Hendrik Sal-Saller",58.38588,24.49711,10000,"loodus ja hobused","lTJHofgwzRg","EE","Pärnu",589580,"EE","EEA167","EEP180"
"A1 x J1",42.98339,-81.23304,1060000,"Latest Trends","7zbt4zliK4c","CA","London",6058560,"CA","CAA135","CAP1N6B"
"A1 x J1",50.76871,0.28453,10000,"Latest Trends","7zbt4zliK4c","GB","Eastbourne",2650497,"GB","GBA1E10000011","GBP1BN"
"A1 x J1",50.82838,-0.13947,10600,"Latest Trends","7zbt4zliK4c","GB","Brighton",2654710,"GB","GBA1E06000043","GBP1BN"
"A1 x J1",50.83088,-0.1672,10000,"Latest Trends","7zbt4zliK4c","GB","Hove",2646504,"GB","GBA1E06000043","GBP1BN"
"A1 x J1",51.27904,1.07992,10000,"Latest Trends","7zbt4zliK4c","GB","Canterbury",2653877,"GB","GBA1E10000016","GBP1CT"
"A1 x J1",51.29424,-0.75565,10000,"Latest Trends","7zbt4zliK4c","GB","Farnborough",2649672,"GB","GBA1E10000014","GBP1GU"
"A1 x J1",51.31889,-2.20861,10000,"Latest Trends","7zbt4zliK4c","GB","Trowbridge",2635427,"GB","GBA1E06000054","GBP1BA"
"A1 x J1",51.3751,-2.36172,10000,"Latest Trends","7zbt4zliK4c","GB","Bath",2656173,"GB","GBA1E06000022","GBP1BA"
"A1 x J1",51.37891,0.52786,10000,"Latest Trends","7zbt4zliK4c","GB","Chatham",2653305,"GB","GBA1E06000035","GBP1ME"
"A1 x J1",51.38333,-0.1,22400,"Latest Trends","7zbt4zliK4c","GB","Croydon",2651817,"GB","GBA1E09000001","GBP1CR"
"A1 x J1",51.38914,0.54863,10000,"Latest Trends","7zbt4zliK4c","GB","Gillingham",2648657,"GB","GBA1E06000035","GBP1ME"
"A1 x J1",51.40322,-0.16831,10000,"Latest Trends","7zbt4zliK4c","GB","Mitcham",2642414,"GB","GBA1E09000001","GBP1CR"
"A1 x J1",51.41363,-0.75054,10000,"Latest Trends","7zbt4zliK4c","GB","Bracknell",2655009,"GB","GBA1E06000036","GBP1RG"
"A1 x J1",51.44206,0.37106,10000,"Latest Trends","7zbt4zliK4c","GB","Gravesend",2648187,"GB","GBA1E10000016","GBP1DA"
"A1 x J1",51.44657,0.21423,12000,"Latest Trends","7zbt4zliK4c","GB","Dartford",2651500,"GB","GBA1E10000016","GBP1DA"
"A1 x J1",51.47566,0.32521,10400,"Latest Trends","7zbt4zliK4c","GB","Grays",2648182,"GB","GBA1E06000034","GBP1RM"
"A1 x J1",51.50853,-0.12574,1060000,"Latest Trends","7zbt4zliK4c","GB","London",2643743,"GB","GBA1E09000001","GBP1WC"
"A1 x J1",51.50949,-0.59541,22300,"Latest Trends","7zbt4zliK4c","GB","Slough",2637627,"GB","GBA1E06000039","GBP1SL"
"A1 x J1",51.52279,-0.71986,10000,"Latest Trends","7zbt4zliK4c","GB","Maidenhead",2643186,"GB","GBA1E06000040","GBP1SL"
"A1 x J1",51.55,0.16667,30700,"Latest Trends","7zbt4zliK4c","GB","Dagenham",2651621,"GB","GBA1E09000001","GBP1RM"
"A1 x J1",51.56844,0.45782,12400,"Latest Trends","7zbt4zliK4c","GB","Basildon",2656194,"GB","GBA1E10000012","GBP1SS"
"A1 x J1",51.65147,-0.08497,20800,"Latest Trends","7zbt4zliK4c","GB","Enfield Town",2649997,"GB","GBA1E09000001","GBP1EN"
"A1 x J1",51.65531,-0.39602,12200,"Latest Trends","7zbt4zliK4c","GB","Watford",2634677,"GB","GBA1E10000015","GBP1WD"
"A1 x J1",51.73575,0.46958,10000,"Latest Trends","7zbt4zliK4c","GB","Chelmsford",2653266,"GB","GBA1E10000012","GBP1CM"
"A1 x J1",51.75,-0.33333,10000,"Latest Trends","7zbt4zliK4c","GB","St Albans",2638867,"GB","GBA1E10000015","GBP1AL"
"A1 x J1",51.75222,-1.25596,12800,"Latest Trends","7zbt4zliK4c","GB","Oxford",2640729,"GB","GBA1E10000025","GBP1OX"
"A1 x J1",51.75368,-0.44975,10000,"Latest Trends","7zbt4zliK4c","GB","Hemel Hempstead",2647138,"GB","GBA1E10000015","GBP1HP"
"A1 x J1",51.77655,0.11158,10000,"Latest Trends","7zbt4zliK4c","GB","Harlow",2647461,"GB","GBA1E10000012","GBP1CM"
"A1 x J1",51.81665,-0.81458,10000,"Latest Trends","7zbt4zliK4c","GB","Aylesbury",2656719,"GB","GBA1E10000002","GBP1HP"
"A1 x J1",51.87967,-0.41748,28400,"Latest Trends","7zbt4zliK4c","GB","Luton",2643339,"GB","GBA1E06000032","GBP1LU"
"A1 x J1",51.88921,0.90421,10600,"Latest Trends","7zbt4zliK4c","GB","Colchester",2652618,"GB","GBA1E10000012","GBP1CO"
"A1 x J1",51.90006,-2.07972,10000,"Latest Trends","7zbt4zliK4c","GB","Cheltenham",2653261,"GB","GBA1E10000013","GBP1GL"
"A1 x J1",51.90224,-0.20256,10000,"Latest Trends","7zbt4zliK4c","GB","Stevenage",2636940,"GB","GBA1E10000015","GBP1SG"
"A1 x J1",51.97938,-0.22664,10000,"Latest Trends","7zbt4zliK4c","GB","Letchworth Garden City",8224216,"GB","GBA1E10000015","GBP1SG"
"A1 x J1",52.04172,-0.75583,10000,"Latest Trends","7zbt4zliK4c","GB","Milton Keynes",2642465,"GB","GBA1E06000042","GBP1MK"
"A1 x J1",52.05917,1.15545,15100,"Latest Trends","7zbt4zliK4c","GB","Ipswich",2646057,"GB","GBA1E10000029","GBP1IP"
"A1 x J1",52.13459,-0.46632,12100,"Latest Trends","7zbt4zliK4c","GB","Bedford",2656046,"GB","GBA1E06000055","GBP1MK"
"A1 x J1",52.2,0.11667,10000,"Latest Trends","7zbt4zliK4c","GB","Cambridge",2653941,"GB","GBA1E10000003","GBP1CB"
"A1 x J1",52.25,-0.88333,25000,"Latest Trends","7zbt4zliK4c","GB","Northampton",2641430,"GB","GBA1E10000021","GBP1NN"
"A1 x J1",52.3,-1.53333,10000,"Latest Trends","7zbt4zliK4c","GB","Royal Leamington Spa",2644737,"GB","GBA1E10000031","GBP1CV"
"A1 x J1",52.3065,-1.94569,10000,"Latest Trends","7zbt4zliK4c","GB","Redditch",2639557,"GB","GBA1E10000034","GBP1B"
"A1 x J1",52.37092,-1.26417,10300,"Latest Trends","7zbt4zliK4c","GB","Rugby",2638978,"GB","GBA1E10000031","GBP1CV"
"A1 x J1",52.39836,-0.72571,10000,"Latest Trends","7zbt4zliK4c","GB","Kettering",2645753,"GB","GBA1E10000021","GBP1NN"
"A1 x J1",52.40656,-1.51217,45300,"Latest Trends","7zbt4zliK4c","GB","Coventry",2652221,"GB","GBA1E11000005","GBP1CV"
"A1 x J1",52.41426,-1.78094,10000,"Latest Trends","7zbt4zliK4c","GB","Solihull",2637546,"GB","GBA1E11000005","GBP1B"
"A1 x J1",52.45608,-2.14317,10000,"Latest Trends","7zbt4zliK4c","GB","Stourbridge",2636769,"GB","GBA1E11000005","GBP1DY"
"A1 x J1",52.56667,-1.81667,10000,"Latest Trends","7zbt4zliK4c","GB","Sutton Coldfield",2636486,"GB","GBA1E11000005","GBP1B"
"A1 x J1",52.57364,-0.24777,23000,"Latest Trends","7zbt4zliK4c","GB","Peterborough",2640354,"GB","GBA1E06000031","GBP1PE"
"A1 x J1",52.62783,1.29834,14000,"Latest Trends","7zbt4zliK4c","GB","Norwich",2641181,"GB","GBA1E10000020","GBP1NR"
"A1 x J1",52.63399,-1.69587,10000,"Latest Trends","7zbt4zliK4c","GB","Tamworth",2636276,"GB","GBA1E10000028","GBP1B"
"A1 x J1",52.76667,-1.2,10000,"Latest Trends","7zbt4zliK4c","GB","Loughborough",2643567,"GB","GBA1E10000018","GBP1LE"
"A1 x J1",52.89855,-1.27136,10000,"Latest Trends","7zbt4zliK4c","GB","Long Eaton",2643697,"GB","GBA1E10000007","GBP1NG"
"A1 x J1",53.42519,-2.32443,10000,"Latest Trends","7zbt4zliK4c","GB","Sale",2638678,"GB","GBA1E11000001","GBP1M"
"A1 x J1",53.58333,-2.43333,19100,"Latest Trends","7zbt4zliK4c","GB","Bolton",2655237,"GB","GBA1E11000001","GBP1BL"
"A1 x J1",53.71667,-1.85,10100,"Latest Trends","7zbt4zliK4c","GB","Halifax",2647632,"GB","GBA1E11000006","GBP1HX"
"A1 x J1",53.76282,-2.70452,11300,"Latest Trends","7zbt4zliK4c","GB","Preston",2639912,"GB","GBA1E10000017","GBP1PR"
"A1 x J1",53.79648,-1.54785,66100,"Latest Trends","7zbt4zliK4c","GB","Leeds",2644688,"GB","GBA1E11000006","GBP1LS"
"Ado",26.21667,127.68333,115000,"うっせぇわ","Qp3b-RXtz4w","JP","Naha",1856035,"JP","JPA147","JPP190"
"Ado",31.56667,130.55,176000,"うっせぇわ","Qp3b-RXtz4w","JP","Kagoshima",1860827,"JP","JPA146","JPP189"
"Ado",31.91667,131.41667,124000,"うっせぇわ","Qp3b-RXtz4w","JP","Miyazaki",1856717,"JP","JPA145","JPP188"
"Ado",32.75,129.88333,107000,"うっせぇわ","Qp3b-RXtz4w","JP","Nagasaki",1856177,"JP","JPA142","JPP185"
"Ado",32.80589,130.69181,245000,"うっせぇわ","Qp3b-RXtz4w","JP","Kumamoto",1858421,"JP","JPA143","JPP186"
"Ado",33.23333,130.3,66700,"うっせぇわ","Qp3b-RXtz4w","JP","Saga",1853303,"JP","JPA141","JPP184"
"Ado",33.23333,131.6,154000,"うっせぇわ","Qp3b-RXtz4w","JP","Ōita",1854487,"JP","JPA144","JPP187"
"Ado",33.55,133.53333,108000,"うっせぇわ","Qp3b-RXtz4w","JP","Kochi",1859146,"JP","JPA139","JPP178"
"Ado",33.6,130.41667,927000,"うっせぇわ","Qp3b-RXtz4w","JP","Fukuoka",1863967,"JP","JPA140","JPP181"
"Ado",33.83916,132.76574,171000,"うっせぇわ","Qp3b-RXtz4w","JP","Matsuyama",1926099,"JP","JPA138","JPP179"
"Ado",33.85181,130.85034,271000,"うっせぇわ","Qp3b-RXtz4w","JP","Kitakyushu",1859307,"JP","JPA140","JPP180"
"Ado",34.06667,134.56667,83000,"うっせぇわ","Qp3b-RXtz4w","JP","Tokushima",1850158,"JP","JPA136","JPP177"
"Ado",34.18333,131.46667,54300,"うっせぇわ","Qp3b-RXtz4w","JP","Yamaguchi",1848689,"JP","JPA135","JPP175"
"Ado",34.23333,135.16667,111000,"うっせぇわ","Qp3b-RXtz4w","JP","Wakayama",1926004,"JP","JPA130","JPP164"
"Ado",34.33333,134.05,125000,"うっせぇわ","Qp3b-RXtz4w","JP","Takamatsu",1851100,"JP","JPA137","JPP176"
"Ado",34.4,132.45,441000,"うっせぇわ","Qp3b-RXtz4w","JP","Hiroshima",1862415,"JP","JPA134","JPP173"
"Ado",34.41667,135.31667,32800,"うっせぇわ","Qp3b-RXtz4w","JP","Izumisano",1861091,"JP","JPA127","JPP159"
"Ado",34.48333,133.36667,133000,"うっせぇわ","Qp3b-RXtz4w","JP","Fukuyama",1863917,"JP","JPA134","JPP172"
"Ado",34.58333,133.76667,141000,"うっせぇわ","Qp3b-RXtz4w","JP","Kurashiki",1858311,"JP","JPA133","JPP171"
"Ado",34.58333,135.46667,260000,"うっせぇわ","Qp3b-RXtz4w","JP","Sakai",1853195,"JP","JPA127","JPP159"
"Ado",34.65,133.93333,211000,"うっせぇわ","Qp3b-RXtz4w","JP","Okayama",1854383,"JP","JPA133","JPP170"
"Ado",34.68505,135.80485,103000,"うっせぇわ","Qp3b-RXtz4w","JP","Nara-shi",1855612,"JP","JPA129","JPP163"
"Ado",34.6913,135.183,423000,"うっせぇわ","Qp3b-RXtz4w","JP","Kobe",1859171,"JP","JPA128","JPP165"
"Ado",34.69374,135.50218,2950000,"うっせぇわ","Qp3b-RXtz4w","JP","Osaka",1853909,"JP","JPA127","JPP153"
"Ado",34.7,137.73333,225000,"うっせぇわ","Qp3b-RXtz4w","JP","Hamamatsu",1863289,"JP","JPA122","JPP143"
"Ado",34.71667,135.41667,139000,"うっせぇわ","Qp3b-RXtz4w","JP","Amagasaki",1865387,"JP","JPA128","JPP166"
"Ado",34.73333,136.51667,74700,"うっせぇわ","Qp3b-RXtz4w","JP","Tsu",1849796,"JP","JPA124","JPP151"
"Ado",34.76143,135.51567,101000,"うっせぇわ","Qp3b-RXtz4w","JP","Suita",1851483,"JP","JPA127","JPP156"
"Ado",34.76943,134.82905,80800,"うっせぇわ","Qp3b-RXtz4w","JP","Kakogawachō-honmachi",1860704,"JP","JPA128","JPP167"
"Ado",34.78244,135.46932,120000,"うっせぇわ","Qp3b-RXtz4w","JP","Toyonaka",1849837,"JP","JPA127","JPP156"
"Ado",34.79936,135.35697,65900,"うっせぇわ","Qp3b-RXtz4w","JP","Takarazuka",1851012,"JP","JPA128","JPP166"
"Ado",34.81352,135.64914,130000,"うっせぇわ","Qp3b-RXtz4w","JP","Hirakata",1862540,"JP","JPA127","JPP157"
"Ado",34.81667,134.7,163000,"うっせぇわ","Qp3b-RXtz4w","JP","Himeji",1862627,"JP","JPA128","JPP167"
"Ado",34.84833,135.61678,102000,"うっせぇわ","Qp3b-RXtz4w","JP","Takatsuki",1850910,"JP","JPA127","JPP156"
"Ado",34.96667,136.61667,100000,"うっせぇわ","Qp3b-RXtz4w","JP","Yokkaichi",1848373,"JP","JPA124","JPP151"
"Ado",34.98333,138.38333,193000,"うっせぇわ","Qp3b-RXtz4w","JP","Shizuoka",1851717,"JP","JPA122","JPP142"
"Ado",35,135.86667,105000,"うっせぇわ","Qp3b-RXtz4w","JP","Ōtsu",1853574,"JP","JPA125","JPP152"
"Ado",35.01667,135.96667,47400,"うっせぇわ","Qp3b-RXtz4w","JP","Kusatsu",1858067,"JP","JPA125","JPP152"
"Ado",35.02107,135.75385,417000,"うっせぇわ","Qp3b-RXtz4w","JP","Kyoto",1857910,"JP","JPA126","JPP160"
"Ado",35.08333,137.15,141000,"うっせぇわ","Qp3b-RXtz4w","JP","Toyota",1849814,"JP","JPA123","JPP147"
"Ado",35.18147,136.90641,958000,"うっせぇわ","Qp3b-RXtz4w","JP","Nagoya",1856057,"JP","JPA123","JPP146"
"Ado",35.28361,139.66722,100000,"うっせぇわ","Qp3b-RXtz4w","JP","Yokosuka",1848313,"JP","JPA114","JPP123"
"Ado",35.34926,139.47666,126000,"うっせぇわ","Qp3b-RXtz4w","JP","Fujisawa",1864092,"JP","JPA114","JPP125"
"Ado",35.42291,136.76039,124000,"うっせぇわ","Qp3b-RXtz4w","JP","Gifu-shi",1863641,"JP","JPA121","JPP150"
"Ado",35.43333,139.65,1190000,"うっせぇわ","Qp3b-RXtz4w","JP","Yokohama",1848354,"JP","JPA114","JPP123"
"Ado",35.48333,133.05,53400,"うっせぇわ","Qp3b-RXtz4w","JP","Matsue",1857550,"JP","JPA132","JPP169"
"Ado",35.5,134.23333,52100,"うっせぇわ","Qp3b-RXtz4w","JP","Tottori",1849892,"JP","JPA131","JPP168"
"Ado",35.52056,139.71722,411000,"うっせぇわ","Qp3b-RXtz4w","JP","Kawasaki",1859642,"JP","JPA114","JPP121"
"Ado",35.6,140.11667,277000,"うっせぇわ","Qp3b-RXtz4w","JP","Chiba",2113015,"JP","JPA112","JPP126"
"Ado",35.65583,139.32389,172000,"うっせぇわ","Qp3b-RXtz4w","JP","Hachiōji",1863440,"JP","JPA113","JPP119"
"Ado",35.66667,138.56667,54900,"うっせぇわ","Qp3b-RXtz4w","JP","Kōfu",1859100,"JP","JPA119","JPP140"
"Ado",35.77995,139.90144,135000,"うっせぇわ","Qp3b-RXtz4w","JP","Matsudo",1857553,"JP","JPA112","JPP127"
"Ado",35.79916,139.46903,93900,"うっせぇわ","Qp3b-RXtz4w","JP","Tokorozawa",1850181,"JP","JPA111","JPP135"
"Ado",35.80521,139.71072,178000,"うっせぇわ","Qp3b-RXtz4w","JP","Kawaguchi",1859730,"JP","JPA111","JPP133"
"Ado",35.86224,139.97732,132000,"うっせぇわ","Qp3b-RXtz4w","JP","Kashiwa",1859924,"JP","JPA112","JPP127"
"Ado",35.89035,139.78916,111000,"うっせぇわ","Qp3b-RXtz4w","JP","Koshigaya",1858729,"JP","JPA111","JPP134"
"Ado",35.90807,139.65657,532000,"うっせぇわ","Qp3b-RXtz4w","JP","Saitama",6940394,"JP","JPA111","JPP133"
"Ado",35.90861,139.48528,104000,"うっせぇわ","Qp3b-RXtz4w","JP","Kawagoe",1859740,"JP","JPA111","JPP135"
"Ado",36.06443,136.22257,89100,"うっせぇわ","Qp3b-RXtz4w","JP","Fukui-shi",1863985,"JP","JPA118","JPP191"
"Ado",36.2,140.1,76100,"うっせぇわ","Qp3b-RXtz4w","JP","Tsukuba",2110683,"JP","JPA108","JPP130"
"Ado",36.23333,137.96667,64800,"うっせぇわ","Qp3b-RXtz4w","JP","Matsumoto",1857519,"JP","JPA120","JPP139"
"Ado",36.33333,139.01667,107000,"うっせぇわ","Qp3b-RXtz4w","JP","Takasaki",1851002,"JP","JPA110","JPP137"
"Ado",36.35,140.45,87300,"うっせぇわ","Qp3b-RXtz4w","JP","Mito",2111901,"JP","JPA108","JPP131"
"Ado",36.4,139.08333,90800,"うっせぇわ","Qp3b-RXtz4w","JP","Maebashi",1857843,"JP","JPA110","JPP137"
"Ado",36.56667,139.88333,157000,"うっせぇわ","Qp3b-RXtz4w","JP","Utsunomiya",1849053,"JP","JPA109","JPP132"
"Ado",36.6,136.61667,138000,"うっせぇわ","Qp3b-RXtz4w","JP","Kanazawa",1860243,"JP","JPA117","JPP192"
"Ado",36.65,138.18333,95600,"うっせぇわ","Qp3b-RXtz4w","JP","Nagano",1856215,"JP","JPA120","JPP138"
"Ado",36.7,137.21667,120000,"うっせぇわ","Qp3b-RXtz4w","JP","Toyama",1849876,"JP","JPA116","JPP193"
"Ado",37.05,140.88333,93200,"うっせぇわ","Qp3b-RXtz4w","JP","Iwaki",2112539,"JP","JPA107","JPP197"
"Ado",37.4,140.38333,97100,"うっせぇわ","Qp3b-RXtz4w","JP","Kōriyama",2112141,"JP","JPA107","JPP196"
"Ado",37.75,140.46667,76300,"うっせぇわ","Qp3b-RXtz4w","JP","Fukushima",2112923,"JP","JPA107","JPP196"
"Ado",37.88637,139.00589,217000,"うっせぇわ","Qp3b-RXtz4w","JP","Niigata",1855431,"JP","JPA115","JPP195"
"Ado",38.23333,140.36667,64800,"うっせぇわ","Qp3b-RXtz4w","JP","Yamagata",2110556,"JP","JPA106","JPP199"
"Ado",38.26667,140.86667,315000,"うっせぇわ","Qp3b-RXtz4w","JP","Sendai",2111149,"JP","JPA104","JPP198"
"Ado",39.7,141.15,78900,"うっせぇわ","Qp3b-RXtz4w","JP","Morioka",2111834,"JP","JPA103","JPP102"
"Ado",39.71667,140.11667,81700,"うっせぇわ","Qp3b-RXtz4w","JP","Akita",2113126,"JP","JPA105","JPP101"
"Ado",40.5,141.5,62300,"うっせぇわ","Qp3b-RXtz4w","JP","Hachinohe",2130203,"JP","JPA102","JPP103"
"Ado",40.81667,140.73333,76300,"うっせぇわ","Qp3b-RXtz4w","JP","Aomori",2130658,"JP","JPA102","JPP103"
"Ado",41.77583,140.73667,81800,"うっせぇわ","Qp3b-RXtz4w","JP","Hakodate",2130188,"JP","JPA101","JPP104"
"Ado",43.06667,141.35,874000,"うっせぇわ","Qp3b-RXtz4w","JP","Sapporo",2128295,"JP","JPA101","JPP106"
"Ahlam",21.54238,39.19797,4270000,"حزين","vgDkghvqwdA","SA","Jeddah",105343,"SA","SAA102","SAP12"
"Ahlam",24.68773,46.72185,5210000,"حزين","vgDkghvqwdA","SA","Riyadh",108410,"SA","SAA101","SAP11"
"Albina",43.50891,16.43915,179000,"Tick-Tock","c8IM3Y5gY9E","HR","Split",3190261,"HR","HRA135","HRP121"
"Albina",44.11972,15.24222,10000,"Tick-Tock","c8IM3Y5gY9E","HR","Zadar",3186952,"HR","HRA133","HRP123"
"Albina",45.32673,14.44241,49400,"Tick-Tock","c8IM3Y5gY9E","HR","Rijeka",3191648,"HR","HRA131","HRP151"
"Albina",46.30444,16.33778,23300,"Tick-Tock","c8IM3Y5gY9E","HR","Varaždin",3188383,"HR","HRA114","HRP142"
"Alend Hazim",36.19257,44.01062,1140000,"لاوکێ من (Lawke Min)","CQkwNP9H1AI","IQ","Erbil",95446,"IQ","IQA116","IQP144"
"Allj",42.3,69.6,688000,"Wunder King","rl7KEiNifZc","KZ","Shymkent",1518980,"KZ","KZA151","KZP116"
"Allj",45,77.91667,72600,"Wunder King","rl7KEiNifZc","KZ","Taldyqorghan",1518543,"KZ","KZA119","KZP104"
"Allj",45.01556,78.37389,72600,"Wunder King","rl7KEiNifZc","KZ","Taldykorgan",1518542,"KZ","KZA119","KZP104"
"Amel Bent, HATIK",46.98956,3.159,10000,"1,2,3","1QH7Aw5pA30","FR","Nevers",2990474,"FR","FRA127",""
"Amel Bent, HATIK",48.58392,7.74553,165000,"1,2,3","1QH7Aw5pA30","FR","Strasbourg",2973783,"FR","FRA144",""
"Amel Bent, HATIK",49.76667,4.71667,10000,"1,2,3","1QH7Aw5pA30","FR","Charleville-Mézières",3026613,"FR","FRA144",""
"Amel Bent, HATIK",49.84889,3.28757,14300,"1,2,3","1QH7Aw5pA30","FR","Saint-Quentin",2977295,"FR","FRA132",""
"Amel Bent, HATIK",50.29301,2.78186,10000,"1,2,3","1QH7Aw5pA30","FR","Arras",3036784,"FR","FRA132",""
"Amel Bent, HATIK",50.35,3.53333,10900,"1,2,3","1QH7Aw5pA30","FR","Valenciennes",2971041,"FR","FRA132",""
"Amel Bent, HATIK",50.60715,3.38932,10600,"1,2,3","1QH7Aw5pA30","BE","Tournai",2785341,"BE","BEA103000",""
"Amel Bent, HATIK",50.63297,3.05858,366000,"1,2,3","1QH7Aw5pA30","FR","Lille",2998324,"FR","FRA132",""
"Amel Bent, HATIK",50.71667,1.61667,14900,"1,2,3","1QH7Aw5pA30","FR","Boulogne-sur-Mer",3031133,"FR","FRA132",""
"Amel Bent, HATIK",50.95194,1.85635,22400,"1,2,3","1QH7Aw5pA30","FR","Calais",3029162,"FR","FRA132",""
"Amel Bent, HATIK",51.03297,2.377,19600,"1,2,3","1QH7Aw5pA30","FR","Dunkerque",3020686,"FR","FRA132",""
"Amrit Maan, Nimrat Khaira",31.62234,74.87534,685000,"Sira E Hou","zgq07Mj-OYw","IN","Amritsar",1278710,"IN","INA103","INP11430"
"Amrit Maan, Nimrat Khaira",49.05798,-122.25257,28400,"Sira E Hou","zgq07Mj-OYw","CA","Abbotsford",5881791,"CA","CAA159","CAP1V2S"
"Amrit Maan, Nimrat Khaira",51.51579,-0.4234,15900,"Sira E Hou","zgq07Mj-OYw","GB","Hayes",2647261,"GB","GBA1E09000001","GBP1UB"
"Anirudh Ravichander, Gana Balachander",10.51667,76.21667,205000,"Vaathi Coming","fRD_3vJagxk","IN","Trichūr",1254187,"IN","INA132","INP16800"
"Anirudh Ravichander, Gana Balachander",10.77319,76.65366,158000,"Vaathi Coming","fRD_3vJagxk","IN","Pālghāt",1260728,"IN","INA132","INP16780"
"Anirudh Ravichander, Gana Balachander",10.78523,79.13909,69500,"Vaathi Coming","fRD_3vJagxk","IN","Tanjore",1254649,"IN","INA133","INP16130"
"Anirudh Ravichander, Gana Balachander",10.8155,78.69651,266000,"Vaathi Coming","fRD_3vJagxk","IN","Tiruchirappalli",1254388,"IN","INA133","INP16201"
"Anirudh Ravichander, Gana Balachander",11.00555,76.96612,3490000,"Vaathi Coming","fRD_3vJagxk","IN","Coimbatore",1273865,"IN","INA133","INP16410"
"Anirudh Ravichander, Gana Balachander",11.65376,78.15538,1710000,"Vaathi Coming","fRD_3vJagxk","IN","Salem",1257629,"IN","INA133","INP16360"
"Anirudh Ravichander, Gana Balachander",11.86752,75.35763,10000,"Vaathi Coming","fRD_3vJagxk","IN","Kannur",1274987,"IN","INA132","INP16700"
"Anirudh Ravichander, Gana Balachander",11.93381,79.82979,73100,"Vaathi Coming","fRD_3vJagxk","IN","Puducherry",1259425,"IN","INA134","INP16050"
"Anirudh Ravichander, Gana Balachander",12.9184,79.13255,63500,"Vaathi Coming","fRD_3vJagxk","IN","Vellore",1253286,"IN","INA133","INP16320"
"Anirudh Ravichander, Gana Balachander",13.08784,80.27847,16100000,"Vaathi Coming","fRD_3vJagxk","IN","Chennai",1264527,"IN","INA133","INP16000"
"Anirudh Ravichander, Gana Balachander",8.4855,76.94924,349000,"Vaathi Coming","fRD_3vJagxk","IN","Thiruvananthapuram",1254163,"IN","INA132","INP16950"
"Anirudh Ravichander, Gana Balachander",8.72742,77.6838,45900,"Vaathi Coming","fRD_3vJagxk","IN","Tirunelveli",1254361,"IN","INA133","INP16277"
"Anirudh Ravichander, Gana Balachander",8.88113,76.58469,226000,"Vaathi Coming","fRD_3vJagxk","IN","Kollam",1259091,"IN","INA132","INP16910"
"Anirudh Ravichander, Gana Balachander",9.58692,76.52132,18200,"Vaathi Coming","fRD_3vJagxk","IN","Kottayam",1265911,"IN","INA132","INP16860"
"Anirudh Ravichander, Gana Balachander",9.91769,78.11898,457000,"Vaathi Coming","fRD_3vJagxk","IN","Madurai",1264521,"IN","INA133","INP16250"
"Ankush Raja, Shilpi Raj",23.34316,85.3094,1650000,"कुँवारे में गंगा नहईले बानी","YyVI46K8q9E","IN","Ranchi",1258526,"IN","INA120","INP18340"
"Ankush Raja, Shilpi Raj",25.31668,83.01041,1160000,"कुँवारे में गंगा नहईले बानी","YyVI46K8q9E","IN","Varanasi",1253405,"IN","INA109","INP12210"
"Ankush Raja, Shilpi Raj",25.59408,85.13563,56900000,"कुँवारे में गंगा नहईले बानी","YyVI46K8q9E","IN","Patna",1260086,"IN","INA110","INP18000"
"Ankush Raja, Shilpi Raj",26.83928,80.92313,38500000,"कुँवारे में गंगा नहईले बानी","YyVI46K8q9E","IN","Lucknow",1264733,"IN","INA109","INP12260"
"Artem Pivovarov",48.9215,24.70972,62900,"Дежавю","D83kYtgLZpI","UA","Ivano-Frankivsk",707471,"UA","UAA126","UAP176"
"Artem Pivovarov",49.55342,25.58918,70400,"Дежавю","D83kYtgLZpI","UA","Ternopil",691650,"UA","UAA161","UAP146"
"Artem Pivovarov",49.83826,24.02324,214000,"Дежавю","D83kYtgLZpI","UA","Lviv",702550,"UA","UAA146","UAP179"
"Bad Bunny, Rosalía",-12.06513,-75.20486,120000,"LA NOCHE DE ANOCHE","f5omY8jVrSM","PE","Huancayo",3939459,"PE","PEA112","PEP112"
"Bad Bunny, Rosalía",-13.15878,-74.22321,50600,"LA NOCHE DE ANOCHE","f5omY8jVrSM","PE","Ayacucho",3947019,"PE","PEA105","PEP105"
"Bad Bunny, Rosalía",-13.52264,-71.96734,182000,"LA NOCHE DE ANOCHE","f5omY8jVrSM","PE","Cusco",3941584,"PE","PEA108","PEP108"
"Bad Bunny, Rosalía",-15.5,-70.13333,122000,"LA NOCHE DE ANOCHE","f5omY8jVrSM","PE","Juliaca",3937513,"PE","PEA121","PEP121"
"Bad Bunny, Rosalía",-16.39889,-71.535,299000,"LA NOCHE DE ANOCHE","f5omY8jVrSM","PE","Arequipa",3947322,"PE","PEA104","PEP104"
"Bad Bunny, Rosalía",-18.01465,-70.25362,145000,"LA NOCHE DE ANOCHE","f5omY8jVrSM","PE","Tacna",3928128,"PE","PEA123","PEP123"
"Bad Bunny, Rosalía",-31.5375,-68.53639,77800,"LA NOCHE DE ANOCHE","f5omY8jVrSM","AR","San Juan",3837213,"AR","ARA170","ARP1J54"
"Bad Bunny, Rosalía",-43.24895,-65.30505,44600,"LA NOCHE DE ANOCHE","f5omY8jVrSM","AR","Trelew",3833883,"AR","ARA126","ARP1U91"
"Bad Bunny, Rosalía",-45.86413,-67.49656,82600,"LA NOCHE DE ANOCHE","f5omY8jVrSM","AR","Comodoro Rivadavia",3860443,"AR","ARA126","ARP1U90"
"Bad Bunny, Rosalía",-54.8,-68.3,36000,"LA NOCHE DE ANOCHE","f5omY8jVrSM","AR","Ushuaia",3833367,"AR","ARA194","ARP1V94"
"Bad Bunny, Rosalía",-9.93062,-76.24223,43600,"LA NOCHE DE ANOCHE","f5omY8jVrSM","PE","Huánuco",3696417,"PE","PEA110","PEP110"
"Bad Bunny, Rosalía",17.98689,-92.93028,212000,"LA NOCHE DE ANOCHE","f5omY8jVrSM","MX","Villahermosa",3514670,"MX","MXA127","MXP186"
"Bad Bunny, Rosalía",18.01108,-66.61406,42100,"LA NOCHE DE ANOCHE","f5omY8jVrSM","PR","Ponce",4566880,"PR","PRA172113","PRP1007"
"Bad Bunny, Rosalía",18.13346,-94.44242,74000,"LA NOCHE DE ANOCHE","f5omY8jVrSM","MX","Coatzacoalcos",3530517,"MX","MXA130","MXP196"
"Bad Bunny, Rosalía",18.20107,-67.13962,13900,"LA NOCHE DE ANOCHE","f5omY8jVrSM","PR","Mayagüez",4566385,"PR","PRA172097","PRP1006"
"Bad Bunny, Rosalía",18.23412,-66.0485,27100,"LA NOCHE DE ANOCHE","f5omY8jVrSM","PR","Caguas",4563008,"PR","PRA172025","PRP1007"
"Bad Bunny, Rosalía",18.39856,-66.15572,52200,"LA NOCHE DE ANOCHE","f5omY8jVrSM","PR","Bayamón",4562831,"PR","PRA172021","PRP1009"
"Bad Bunny, Rosalía",18.42733,-68.97285,115000,"LA NOCHE DE ANOCHE","f5omY8jVrSM","DO","La Romana",3500957,"DO","DOA112","DOP122"
"Bad Bunny, Rosalía",18.46156,-69.29718,83800,"LA NOCHE DE ANOCHE","f5omY8jVrSM","DO","San Pedro de Macorís",3493032,"DO","DOA123","DOP121"
"Bad Bunny, Rosalía",18.51413,-88.30381,54900,"LA NOCHE DE ANOCHE","f5omY8jVrSM","MX","Chetumal",3531023,"MX","MXA123","MXP177"
"Bad Bunny, Rosalía",18.58182,-68.40431,64099,"LA NOCHE DE ANOCHE","f5omY8jVrSM","DO","Punta Cana",3494242,"DO","DOA111","DOP123"
"Bad Bunny, Rosalía",18.8842,-96.92559,104000,"LA NOCHE DE ANOCHE","f5omY8jVrSM","MX","Córdoba",3530240,"MX","MXA130","MXP194"
"Bad Bunny, Rosalía",19.18095,-96.1429,221000,"LA NOCHE DE ANOCHE","f5omY8jVrSM","MX","Veracruz",3514783,"MX","MXA130","MXP191"
"Bad Bunny, Rosalía",19.25934,-99.60175,44000,"LA NOCHE DE ANOCHE","f5omY8jVrSM","MX","Metepec",3523303,"MX","MXA115","MXP152"
"Bad Bunny, Rosalía",19.31905,-98.19982,11300,"LA NOCHE DE ANOCHE","f5omY8jVrSM","MX","Tlaxcala",3815415,"MX","MXA129","MXP190"
"Bad Bunny, Rosalía",19.84386,-90.52554,101000,"LA NOCHE DE ANOCHE","f5omY8jVrSM","MX","Campeche",3531732,"MX","MXA104","MXP124"
"Bad Bunny, Rosalía",20.6274,-87.07987,62600,"LA NOCHE DE ANOCHE","f5omY8jVrSM","MX","Playa del Carmen",3521342,"MX","MXA123","MXP177"
"Bad Bunny, Rosalía",21.17429,-86.84656,348000,"LA NOCHE DE ANOCHE","f5omY8jVrSM","MX","Cancún",3531673,"MX","MXA123","MXP177"
"Bad Bunny, Rosalía",21.98333,-99.01667,36100,"LA NOCHE DE ANOCHE","f5omY8jVrSM","MX","Ciudad Valles",3530582,"MX","MXA124","MXP179"
"Bad Bunny, Rosalía",21.99631,-99.01093,36100,"LA NOCHE DE ANOCHE","f5omY8jVrSM","MX","Ciudad Valles",3483849,"MX","MXA124","MXP179"
"Bad Bunny, Rosalía",22.27817,-97.86772,132000,"LA NOCHE DE ANOCHE","f5omY8jVrSM","MX","Tampico",3516355,"MX","MXA128","MXP189"
"Bad Bunny, Rosalía",25.79065,-80.13005,12200,"LA NOCHE DE ANOCHE","f5omY8jVrSM","US","Miami Beach",4164143,"US","USA112","USP133"
"Bad Bunny, Rosalía",25.81954,-80.35533,17600,"LA NOCHE DE ANOCHE","f5omY8jVrSM","US","Doral",4153471,"US","USA112","USP133"
"Bad Bunny, Rosalía",28.30468,-81.41667,26700,"LA NOCHE DE ANOCHE","f5omY8jVrSM","US","Kissimmee",4160983,"US","USA112","USP134"
"Bad Bunny, Rosalía",38.53816,-0.13098,17600,"LA NOCHE DE ANOCHE","f5omY8jVrSM","ES","Benidorm",2521088,"ES","ESA110","ESP103"
"Bad Bunny, Rosalía",40.24147,-3.69999,10000,"LA NOCHE DE ANOCHE","f5omY8jVrSM","ES","Pinto",3113415,"ES","ESA113","ESP128"
"Bad Bunny, Rosalía",40.30571,-3.73295,27400,"LA NOCHE DE ANOCHE","f5omY8jVrSM","ES","Getafe",3121437,"ES","ESA113","ESP128"
"Bad Bunny, Rosalía",40.32234,-3.86496,28300,"LA NOCHE DE ANOCHE","f5omY8jVrSM","ES","Móstoles",3116025,"ES","ESA113","ESP128"
"Bad Bunny, Rosalía",40.42378,-3.56129,10900,"LA NOCHE DE ANOCHE","f5omY8jVrSM","ES","Coslada",3124408,"ES","ESA113","ESP128"
"Bad Bunny, Rosalía",40.45535,-3.46973,21900,"LA NOCHE DE ANOCHE","f5omY8jVrSM","ES","Torrejón de Ardoz",3107784,"ES","ESA113","ESP128"
"Bad Bunny, Rosalía",40.50677,-74.26542,12300,"LA NOCHE DE ANOCHE","f5omY8jVrSM","US","Perth Amboy",5102578,"US","USA134","USP108"
"Bad Bunny, Rosalía",40.54746,-3.64197,17800,"LA NOCHE DE ANOCHE","f5omY8jVrSM","ES","Alcobendas",3130583,"ES","ESA113","ESP128"
"Bad Bunny, Rosalía",40.66399,-74.2107,26100,"LA NOCHE DE ANOCHE","f5omY8jVrSM","US","Elizabeth",5097598,"US","USA134","USP107"
"Bad Bunny, Rosalía",40.74399,-74.03236,10000,"LA NOCHE DE ANOCHE","f5omY8jVrSM","US","Hoboken",5099133,"US","USA134","USP107"
"Bad Bunny, Rosalía",40.76843,-74.14542,10000,"LA NOCHE DE ANOCHE","f5omY8jVrSM","US","Kearny",5099967,"US","USA134","USP107"
"Bad Bunny, Rosalía",40.77955,-74.02375,12000,"LA NOCHE DE ANOCHE","f5omY8jVrSM","US","Union City",5105634,"US","USA134","USP107"
"Bad Bunny, Rosalía",40.78121,-73.24623,14000,"LA NOCHE DE ANOCHE","f5omY8jVrSM","US","Brentwood",5110077,"US","USA136","USP111"
"Bad Bunny, Rosalía",40.80427,-74.01208,32000,"LA NOCHE DE ANOCHE","f5omY8jVrSM","US","North Bergen",5101879,"US","USA134","USP107"
"Bad Bunny, Rosalía",40.85677,-74.12848,12200,"LA NOCHE DE ANOCHE","f5omY8jVrSM","US","Passaic",5102443,"US","USA134","USP107"
"Bad Bunny, Rosalía",40.88593,-74.04347,10000,"LA NOCHE DE ANOCHE","f5omY8jVrSM","US","Hackensack",5098706,"US","USA134","USP107"
"Bad Bunny, Rosalía",40.91677,-74.17181,35800,"LA NOCHE DE ANOCHE","f5omY8jVrSM","US","Paterson",5102466,"US","USA134","USP107"
"Bad Bunny, Rosalía",40.96882,-5.66388,38300,"LA NOCHE DE ANOCHE","f5omY8jVrSM","ES","Salamanca",3111108,"ES","ESA107","ESP137"
"Bad Bunny, Rosalía",41.35,2.08333,16000,"LA NOCHE DE ANOCHE","f5omY8jVrSM","ES","Cornellà de Llobregat",3124569,"ES","ESA109","ESP108"
"Bad Bunny, Rosalía",41.35967,2.10028,50800,"LA NOCHE DE ANOCHE","f5omY8jVrSM","ES","L'Hospitalet de Llobregat",3120619,"ES","ESA109","ESP108"
"Bad Bunny, Rosalía",41.39482,-73.45401,10000,"LA NOCHE DE ANOCHE","f5omY8jVrSM","US","Danbury",4832353,"US","USA109","USP106"
"Bad Bunny, Rosalía",42.33669,-7.86407,16000,"LA NOCHE DE ANOCHE","f5omY8jVrSM","ES","Ourense",3114965,"ES","ESA112","ESP132"
"Bad Bunny, Rosalía",42.88052,-8.54569,20500,"LA NOCHE DE ANOCHE","f5omY8jVrSM","ES","Santiago de Compostela",3109642,"ES","ESA112","ESP115"
"Bad Bunny, Rosalía",43.00992,-7.55602,11400,"LA NOCHE DE ANOCHE","f5omY8jVrSM","ES","Lugo",3117814,"ES","ESA112","ESP127"
"Bad Bunny, Rosalía",43.31283,-1.97499,25800,"LA NOCHE DE ANOCHE","f5omY8jVrSM","ES","Donostia / San Sebastián",3110044,"ES","ESA116","ESP120"
"Bad Bunny, Rosalía",43.36029,-5.84476,24200,"LA NOCHE DE ANOCHE","f5omY8jVrSM","ES","Oviedo",3114711,"ES","ESA103","ESP133"
"Bad Bunny, Rosalía",43.37135,-8.396,38800,"LA NOCHE DE ANOCHE","f5omY8jVrSM","ES","A Coruña",3119841,"ES","ESA112","ESP115"
"Bad Bunny, Rosalía",43.46472,-3.80444,22500,"LA NOCHE DE ANOCHE","f5omY8jVrSM","ES","Santander",3109718,"ES","ESA106","ESP139"
"Baloosh",56.15674,10.21076,25700,"BLØDER","NI8g8PiaPZA","DK","Århus",2624652,"DK","DKA1082","DKP180"
"Balti",32.87519,13.18746,1330000,"Ya Hasra","tS8nzAQg_8k","LY","Tripoli",2210247,"LY","LYA111",""
"Balti",35.82539,10.63699,508000,"Ya Hasra","tS8nzAQg_8k","TN","Sousse",2464915,"TN","TNA131","TNP140"
"Balti",36.81897,10.16579,4860000,"Ya Hasra","tS8nzAQg_8k","TN","Tunis",2464470,"TN","TNA111","TNP110"
"Bausa, Apache 207",48.78232,9.17702,189000,"Madonna","dKhBE_no8d8","DE","Stuttgart",2825297,"DE","DEA108",""
"Bausa, Apache 207",49.00937,8.40444,29100,"Madonna","dKhBE_no8d8","DE","Karlsruhe",2892794,"DE","DEA108",""
"Bausa, Apache 207",49.13995,9.22054,10000,"Madonna","dKhBE_no8d8","DE","Heilbronn",2907669,"DE","DEA108",""
"Bausa, Apache 207",49.40768,8.69079,10000,"Madonna","dKhBE_no8d8","DE","Heidelberg",2907911,"DE","DEA108",""
"Bausa, Apache 207",49.4891,8.46694,38500,"Madonna","dKhBE_no8d8","DE","Mannheim",2873891,"DE","DEA108",""
"Bausa, Apache 207",49.87167,8.65027,10000,"Madonna","dKhBE_no8d8","DE","Darmstadt",2938913,"DE","DEA106",""
"Bausa, Apache 207",49.98419,8.2791,10900,"Madonna","dKhBE_no8d8","DE","Mainz",2874225,"DE","DEA107",""
"Bausa, Apache 207",50.08258,8.24932,15600,"Madonna","dKhBE_no8d8","DE","Wiesbaden",2809346,"DE","DEA106",""
"Bausa, Apache 207",50.11552,8.68417,171000,"Madonna","dKhBE_no8d8","DE","Frankfurt am Main",2925533,"DE","DEA106",""
"Bausa, Apache 207",50.35357,7.57883,10000,"Madonna","dKhBE_no8d8","DE","Koblenz",2886946,"DE","DEA107",""
"Bausa, Apache 207",50.77664,6.08342,13400,"Madonna","dKhBE_no8d8","DE","Aachen",3247449,"DE","DEA105",""
"Bausa, Apache 207",50.93333,6.95,229000,"Madonna","dKhBE_no8d8","DE","Köln",2886242,"DE","DEA105",""
"Bausa, Apache 207",51.22172,6.77616,29500,"Madonna","dKhBE_no8d8","DE","Düsseldorf",2934246,"DE","DEA105",""
"Bausa, Apache 207",51.43247,6.76516,41600,"Madonna","dKhBE_no8d8","DE","Duisburg",2934691,"DE","DEA105",""
"Bausa, Apache 207",51.45657,7.01228,99800,"Madonna","dKhBE_no8d8","DE","Essen",2928810,"DE","DEA105",""
"Bausa, Apache 207",51.47805,6.8625,11900,"Madonna","dKhBE_no8d8","DE","Oberhausen",2860410,"DE","DEA105",""
"BB Anuragee",27.6768,84.43589,173000,"Jodi (Live)","2vInB81qWkY","NP","Bharatpur",1283613,"NP","NPA152401","NPP14"
"BB Anuragee",28.26689,83.96851,242000,"Jodi (Live)","2vInB81qWkY","NP","Pokhara",1282898,"NP","NPA152405","NPP13"
"Bébé Baya",9.53795,-13.67729,70500,"Bebe Baya - Dominée (Clip officiel)","dWH5Ng8o5oo","GN","Conakry",2422465,"GN","GNA12",""
"Bilal Wahib",51.19417,5.9875,10000,501,"SVXHksZSJyI","NL","Roermond",2748000,"NL","NLA104","NLP160"
"Bilal Wahib",51.37,6.16806,10000,501,"SVXHksZSJyI","NL","Venlo",2745641,"NL","NLA104","NLP159"
"Bilal Wahib",51.44083,5.47778,39800,501,"SVXHksZSJyI","NL","Eindhoven",2756253,"NL","NLA104","NLP156"
"Bilal Wahib",51.495,4.29167,10000,501,"SVXHksZSJyI","NL","Bergen op Zoom",2759145,"NL","NLA104","NLP146"
"Bilal Wahib",51.58656,4.77596,10000,501,"SVXHksZSJyI","NL","Breda",2758401,"NL","NLA104","NLP148"
"Bilal Wahib",51.81,4.67361,10000,501,"SVXHksZSJyI","NL","Dordrecht",2756669,"NL","NLA103","NLP133"
"Bilal Wahib",51.8425,5.85278,11300,501,"SVXHksZSJyI","NL","Nijmegen",2750053,"NL","NLA102","NLP165"
"Bilal Wahib",51.88667,5.42917,10000,501,"SVXHksZSJyI","NL","Tiel",2746331,"NL","NLA102","NLP140"
"Bilal Wahib",51.98,5.91111,13700,501,"SVXHksZSJyI","NL","Arnhem",2759661,"NL","NLA102","NLP168"
"Bilal Wahib",52.01667,4.70833,10000,501,"SVXHksZSJyI","NL","Gouda",2755420,"NL","NLA103","NLP128"
"Bilal Wahib",52.02917,5.08056,10000,501,"SVXHksZSJyI","NL","Nieuwegein",2750325,"NL","NLA103","NLP134"
"Bilal Wahib",52.03634,4.32501,10000,501,"SVXHksZSJyI","NL","Rijswijk",2748076,"NL","NLA103","NLP122"
"Bilal Wahib",52.07667,4.29861,60700,501,"SVXHksZSJyI","NL","The Hague",2747373,"NL","NLA103","NLP125"
"Bilal Wahib",52.09,5.23333,10000,501,"SVXHksZSJyI","NL","Zeist",2743977,"NL","NLA103","NLP137"
"Bilal Wahib",52.09083,5.12222,25400,501,"SVXHksZSJyI","NL","Utrecht",2745912,"NL","NLA103","NLP135"
"Bilal Wahib",52.15833,4.49306,10000,501,"SVXHksZSJyI","NL","Leiden",2751773,"NL","NLA103","NLP123"
"Bilal Wahib",52.38084,4.63683,10000,501,"SVXHksZSJyI","NL","Haarlem",2755003,"NL","NLA103","NLP120"
"Blaq Diamond",-22.55941,17.08323,143000,"Summeryomuthi","AagjAUE8U8s","NA","Windhoek",3352136,"NA","NAA111",""
"Blaq Diamond",-29.61679,30.39278,47500,"Summeryomuthi","AagjAUE8U8s","ZA","Pietermaritzburg",965301,"ZA","ZAA1KZN",""
"Blaq Diamond",-29.8579,31.0292,140000,"Summeryomuthi","AagjAUE8U8s","ZA","Durban",1007311,"ZA","ZAA1KZN",""
"Booba",48.83333,2.25,10000,"Mona Lisa","Cp9pk-FkE6E","FR","Boulogne-Billancourt",3031137,"FR","FRA111",""
"Bruno Mars, Anderson .Paak, Silk Sonic",21.28906,-157.71734,81400,"Leave The Door Open","adLGHcj_fmA","US","East Honolulu",7315245,"US","USA115","USP196"
"Bruno Mars, Anderson .Paak, Silk Sonic",21.30694,-157.85833,81400,"Leave The Door Open","adLGHcj_fmA","US","Honolulu",5856195,"US","USA115","USP196"
"Bruno Mars, Anderson .Paak, Silk Sonic",33.85835,-118.06479,10000,"Leave The Door Open","adLGHcj_fmA","US","Cerritos",5335663,"US","USA106","USP190"
"Bruno Mars, Anderson .Paak, Silk Sonic",34.01945,-118.49119,10000,"Leave The Door Open","adLGHcj_fmA","US","Santa Monica",5393212,"US","USA106","USP190"
"Bruno Mars, Anderson .Paak, Silk Sonic",37.22957,-80.41394,10000,"Leave The Door Open","adLGHcj_fmA","US","Blacksburg",4747845,"US","USA151","USP124"
"Bruno Mars, Anderson .Paak, Silk Sonic",37.59577,-122.01913,10000,"Leave The Door Open","adLGHcj_fmA","US","Union City",5404555,"US","USA106","USP194"
"Bruno Mars, Anderson .Paak, Silk Sonic",37.65466,-122.40775,10000,"Leave The Door Open","adLGHcj_fmA","US","South San Francisco",5397765,"US","USA106","USP194"
"Bruno Mars, Anderson .Paak, Silk Sonic",37.70577,-122.46192,11800,"Leave The Door Open","adLGHcj_fmA","US","Daly City",5341430,"US","USA106","USP194"
"Bruno Mars, Anderson .Paak, Silk Sonic",37.76521,-122.24164,10000,"Leave The Door Open","adLGHcj_fmA","US","Alameda",5322737,"US","USA106","USP194"
"Bruno Mars, Anderson .Paak, Silk Sonic",37.87159,-122.27275,10000,"Leave The Door Open","adLGHcj_fmA","US","Berkeley",5327684,"US","USA106","USP194"
"Bruno Mars, Anderson .Paak, Silk Sonic",40.79339,-77.86,10000,"Leave The Door Open","adLGHcj_fmA","US","State College",5213681,"US","USA142","USP116"
"Bruno Mars, Anderson .Paak, Silk Sonic",42.3751,-71.10561,10000,"Leave The Door Open","adLGHcj_fmA","US","Cambridge",4931972,"US","USA125","USP102"
"BTS",33.66946,-117.82311,19700,"Dynamite","gdZLi9oWNZg","US","Irvine",5359777,"US","USA106","USP192"
"BTS",33.70918,-117.95367,10000,"Dynamite","gdZLi9oWNZg","US","Fountain Valley",5350207,"US","USA106","USP192"
"BTS",33.74446,-118.38702,10000,"Dynamite","gdZLi9oWNZg","US","Rancho Palos Verdes",5386035,"US","USA106","USP190"
"BTS",33.83585,-118.34063,11100,"Dynamite","gdZLi9oWNZg","US","Torrance",5403022,"US","USA106","USP190"
"BTS",33.9938,-117.75888,10000,"Dynamite","gdZLi9oWNZg","US","Chino Hills",5336545,"US","USA106","USP191"
"BTS",37.323,-122.03218,10000,"Dynamite","gdZLi9oWNZg","US","Cupertino",5341145,"US","USA106","USP195"
"BTS",38.79345,-77.27165,10000,"Dynamite","gdZLi9oWNZg","US","Burke",4749950,"US","USA151","USP122"
"BTS",43.86682,-79.2663,23600,"Dynamite","gdZLi9oWNZg","CA","Markham",6066513,"CA","CAA135","CAP1L3P"
"BTS",49.17003,-123.13683,15200,"Dynamite","gdZLi9oWNZg","CA","Richmond",6122085,"CA","CAA159","CAP1V6X"
"BTS",49.26636,-122.95263,18600,"Dynamite","gdZLi9oWNZg","CA","Burnaby",5911606,"CA","CAA159","CAP1V5A"
"BTS",49.28297,-122.75262,10000,"Dynamite","gdZLi9oWNZg","CA","Coquitlam",5927689,"CA","CAA159","CAP1V3B"
"Busta 929, Mpura, --, Mr JazziQ, Lady Du, Reece Madlisa",-25.74486,28.18783,479000,"Umsebenzi Wethu","ehbsxBmCY-c","ZA","Pretoria",964137,"ZA","ZAA1GT",""
"Busta 929, Mpura, --, Mr JazziQ, Lady Du, Reece Madlisa",-25.85891,28.18577,18400,"Umsebenzi Wethu","ehbsxBmCY-c","ZA","Centurion",1105777,"ZA","ZAA1GT",""
"Busta 929, Mpura, --, Mr JazziQ, Lady Du, Reece Madlisa",-26.20227,28.04363,184000,"Umsebenzi Wethu","ehbsxBmCY-c","ZA","Johannesburg",993800,"ZA","ZAA1GT",""
"Busta 929, Mpura, --, Mr JazziQ, Lady Du, Reece Madlisa",-29.12107,26.214,18700,"Umsebenzi Wethu","ehbsxBmCY-c","ZA","Bloemfontein",1018725,"ZA","ZAA1FS",""
"Busta 929, Mpura, --, Mr JazziQ, Lady Du, Reece Madlisa",-33.91799,25.57007,38500,"Umsebenzi Wethu","ehbsxBmCY-c","ZA","Port Elizabeth",964420,"ZA","ZAA1EC",""
"Busta 929, Mpura, Mr JazziQ, Lady Du, Reece Madlisa",-26.1625,27.8725,17000,"Umsebenzi Wethu","ehbsxBmCY-c","ZA","Roodepoort",936374,"ZA","ZAA1GT",""
"C. Tangana",41.50633,-5.74456,10000,"Tú Me Dejaste De Querer","ltmO9XQVdSg","ES","Zamora",3104342,"ES","ESA107","ESP149"
"C. Tangana",42.54664,-6.59619,10000,"Tú Me Dejaste De Querer","ltmO9XQVdSg","ES","Ponferrada",3113236,"ES","ESA107","ESP124"
"C. Tangana",42.60003,-5.57032,19400,"Tú Me Dejaste De Querer","ltmO9XQVdSg","ES","León",3118532,"ES","ESA107","ESP124"
"C. Tangana",43.53573,-5.66152,33800,"Tú Me Dejaste De Querer","ltmO9XQVdSg","ES","Gijón",3121424,"ES","ESA103","ESP133"
"C4 Pedro",-25.96553,32.58322,259000,"Nossas Coisas","vH1k6LVSSOQ","MZ","Maputo",1040652,"MZ","MZA111","MZP111"
"C4 Pedro",-8.83682,13.23432,419000,"Nossas Coisas","vH1k6LVSSOQ","AO","Luanda",2240449,"AO","AOA111",""
"C4 Pedro",38.62961,-9.11557,10000,"Nossas Coisas","vH1k6LVSSOQ","PT","Amora",2271680,"PT","PTA117",""
"C4 Pedro",38.75657,-9.25451,14700,"Nossas Coisas","vH1k6LVSSOQ","PT","Queluz",2264268,"PT","PTA117",""
"Cardi B",-33.92584,18.42322,279000,"Up","rCiBgLOcuKU","ZA","Cape Town",3369157,"ZA","ZAA1WC",""
"Cardi B",29.95465,-90.07507,178000,"Up","rCiBgLOcuKU","US","New Orleans",4335045,"US","USA122","USP170"
"Cardi B",30.22409,-92.01984,17800,"Up","rCiBgLOcuKU","US","Lafayette",4330145,"US","USA122","USP170"
"Cardi B",32.98101,-80.03259,10000,"Up","rCiBgLOcuKU","US","Goose Creek",4580098,"US","USA145","USP129"
"Cardi B",35.46756,-97.51643,112000,"Up","rCiBgLOcuKU","US","Oklahoma City",4544349,"US","USA140","USP173"
"Cardi B",36.85293,-75.97799,77000,"Up","rCiBgLOcuKU","US","Virginia Beach",4791259,"US","USA151","USP123"
"Cardi B",37.27097,-79.94143,38500,"Up","rCiBgLOcuKU","US","Roanoke",4782167,"US","USA151","USP124"
"Cardi B",38.02931,-78.47668,10000,"Up","rCiBgLOcuKU","US","Charlottesville",4752031,"US","USA151","USP122"
"Cardi B",39.09973,-94.57857,124000,"Up","rCiBgLOcuKU","US","Kansas City",4393217,"US","USA129","USP164"
"Cardi B",39.11417,-94.62746,63000,"Up","rCiBgLOcuKU","US","Kansas City",4273837,"US","USA120","USP166"
"Cardi B",39.12711,-84.51439,145000,"Up","rCiBgLOcuKU","US","Cincinnati",4508722,"US","USA139","USP145"
"Cardi B",39.73915,-104.9847,302000,"Up","rCiBgLOcuKU","US","Denver",5419384,"US","USA108","USP180"
"Cardi B",40.44062,-79.99589,104000,"Up","rCiBgLOcuKU","US","Pittsburgh",5206379,"US","USA142","USP115"
"Cardi B",40.71427,-74.00597,1530000,"Up","rCiBgLOcuKU","US","New York City",5128581,"US","USA136","USP110"
"Cardi B",41.25626,-95.94043,84800,"Up","rCiBgLOcuKU","US","Omaha",5074472,"US","USA131","USP168"
"Cardi B",42.96336,-85.66809,56200,"Up","rCiBgLOcuKU","US","Grand Rapids",4994358,"US","USA126","USP149"
"Cardi B",47.60621,-122.33207,216000,"Up","rCiBgLOcuKU","US","Seattle",5809844,"US","USA153","USP198"
"Coi Leray",28.80055,-81.27312,10000,"No More Parties","d2-Hkg3loPU","US","Sanford",4172086,"US","USA112","USP132"
"Coi Leray",30.43826,-84.28073,38000,"No More Parties","d2-Hkg3loPU","US","Tallahassee",4174715,"US","USA112","USP132"
"Coi Leray",40.69365,-89.58899,29800,"No More Parties","d2-Hkg3loPU","US","Peoria",4905687,"US","USA117","USP161"
"Coi Leray",40.73232,-74.23487,10000,"No More Parties","d2-Hkg3loPU","US","Irvington",5099724,"US","USA134","USP107"
"Coi Leray",41.08144,-81.51901,36600,"No More Parties","d2-Hkg3loPU","US","Akron",5145476,"US","USA139","USP144"
"Coi Leray",41.92947,-88.75036,10000,"No More Parties","d2-Hkg3loPU","US","DeKalb",4889553,"US","USA117","USP160"
"Coi Leray",42.12922,-80.08506,25800,"No More Parties","d2-Hkg3loPU","US","Erie",5188843,"US","USA142","USP116"
"Coi Leray",42.29171,-85.58723,18700,"No More Parties","d2-Hkg3loPU","US","Kalamazoo",4997787,"US","USA126","USP149"
"Coi Leray",43.04812,-76.14742,62100,"No More Parties","d2-Hkg3loPU","US","Syracuse",5140405,"US","USA136","USP113"
"Colapesce, Dimartino",37.07542,15.28664,18300,"Musica leggerissima","Q7NjUxGMv7Y","IT","Siracusa",2523083,"IT","ITA119","ITP196"
"Colapesce, Dimartino",37.49223,15.07041,245000,"Musica leggerissima","Q7NjUxGMv7Y","IT","Catania",2525068,"IT","ITA119","ITP195"
"Colapesce, Dimartino",38.13205,13.33561,190000,"Musica leggerissima","Q7NjUxGMv7Y","IT","Palermo",2523920,"IT","ITA119","ITP190"
"Colapesce, Dimartino",38.88247,16.60086,33200,"Musica leggerissima","Q7NjUxGMv7Y","IT","Catanzaro",2525059,"IT","ITA118","ITP188"
"Colapesce, Dimartino",39.2989,16.25307,12200,"Musica leggerissima","Q7NjUxGMv7Y","IT","Cosenza",2524907,"IT","ITA118","ITP187"
"Colapesce, Dimartino",40.35481,18.17244,23500,"Musica leggerissima","Q7NjUxGMv7Y","IT","Lecce",3174953,"IT","ITA116","ITP173"
"Colapesce, Dimartino",40.46438,17.24707,85700,"Musica leggerissima","Q7NjUxGMv7Y","IT","Taranto",3165926,"IT","ITA116","ITP174"
"Colapesce, Dimartino",40.67545,14.79328,97700,"Musica leggerissima","Q7NjUxGMv7Y","IT","Salerno",3168673,"IT","ITA115","ITP184"
"Colapesce, Dimartino",41.11148,16.8554,99500,"Musica leggerissima","Q7NjUxGMv7Y","IT","Bari",3182351,"IT","ITA116","ITP170"
"Colapesce, Dimartino",41.89193,12.51133,1270000,"Musica leggerissima","Q7NjUxGMv7Y","IT","Rome",3169070,"IT","ITA112","ITP100"
"Colapesce, Dimartino",42.4584,14.20283,41800,"Musica leggerissima","Q7NjUxGMv7Y","IT","Pescara",3171168,"IT","ITA113","ITP165"
"Daft Punk",48.8846,2.26965,10000,"Epilogue","DuDX6wNfjqc","FR","Neuilly-sur-Seine",2990611,"FR","FRA111",""
"Daviles de Novelda",38.09519,-3.63602,11000,"Flamenco y Bachata","AjrBn09nHis","ES","Linares",2515045,"ES","ESA101","ESP123"
"Daviles de Novelda",38.68712,-4.10734,10000,"Flamenco y Bachata","AjrBn09nHis","ES","Puertollano",2512177,"ES","ESA108","ESP113"
"Daði Freyr",64.13548,-21.89541,24600,"10 Years (Live)","1zTbVRPh5EI","IS","Reykjavík",3413829,"IS","ISA12","ISP110"
"Denny Caknan",-6.99306,110.42083,2170000,"Satru","fKVgm3_x-OI","ID","Semarang",1627896,"ID","IDA133","IDP150"
"Denny Caknan",-7.55611,110.83167,736000,"Satru","fKVgm3_x-OI","ID","Surakarta",1625812,"ID","IDA133","IDP157"
"Denny Caknan",-7.80139,110.36472,68300,"Satru","fKVgm3_x-OI","ID","Yogyakarta",1621177,"ID","IDA134","IDP155"
"Denny Caknan",-7.81667,112.01667,140000,"Satru","fKVgm3_x-OI","ID","Kediri",1640660,"ID","IDA135","IDP164"
"Diego & Victor Hugo, Bruno & Marrone",-15.59611,-56.09667,497000,"Facas (Ao Vivo)","VntVkQRaAS8","BR","Cuiabá",3465038,"BR","BRA151",""
"Diego & Victor Hugo, Bruno & Marrone",-15.64667,-56.1325,106000,"Facas (Ao Vivo)","VntVkQRaAS8","BR","Várzea Grande",3445451,"BR","BRA151",""
"Diego & Victor Hugo, Bruno & Marrone",-18.91861,-48.27722,558000,"Facas (Ao Vivo)","VntVkQRaAS8","BR","Uberlândia",3445831,"BR","BRA131",""
"Diego & Victor Hugo, Bruno & Marrone",-19.46583,-44.24667,109000,"Facas (Ao Vivo)","VntVkQRaAS8","BR","Sete Lagoas",3447624,"BR","BRA131",""
"Diego & Victor Hugo, Bruno & Marrone",-19.74833,-47.93194,192000,"Facas (Ao Vivo)","VntVkQRaAS8","BR","Uberaba",3445839,"BR","BRA131",""
"Diego & Victor Hugo, Bruno & Marrone",-20.14355,-44.89065,73300,"Facas (Ao Vivo)","VntVkQRaAS8","BR","Divinópolis",3464688,"BR","BRA131",""
"Diego & Victor Hugo, Bruno & Marrone",-20.53861,-47.40083,250000,"Facas (Ao Vivo)","VntVkQRaAS8","BR","Franca",3463011,"BR","BRA135",""
"Diego & Victor Hugo, Bruno & Marrone",-20.71889,-46.60972,62700,"Facas (Ao Vivo)","VntVkQRaAS8","BR","Passos",3454847,"BR","BRA131",""
"Diego & Victor Hugo, Bruno & Marrone",-20.81972,-49.37944,168000,"Facas (Ao Vivo)","VntVkQRaAS8","BR","São José do Rio Preto",3448639,"BR","BRA135",""
"Diego & Victor Hugo, Bruno & Marrone",-21.13778,-48.97278,37100,"Facas (Ao Vivo)","VntVkQRaAS8","BR","Catanduva",3466692,"BR","BRA135",""
"Diego & Victor Hugo, Bruno & Marrone",-21.1775,-47.81028,304000,"Facas (Ao Vivo)","VntVkQRaAS8","BR","Ribeirão Preto",3451328,"BR","BRA135",""
"Diego & Victor Hugo, Bruno & Marrone",-21.20889,-50.43278,61700,"Facas (Ao Vivo)","VntVkQRaAS8","BR","Araçatuba",3471859,"BR","BRA135",""
"Diego & Victor Hugo, Bruno & Marrone",-21.41972,-50.0775,24000,"Facas (Ao Vivo)","VntVkQRaAS8","BR","Penápolis",3454235,"BR","BRA135",""
"Diego & Victor Hugo, Bruno & Marrone",-21.60333,-48.36583,25300,"Facas (Ao Vivo)","VntVkQRaAS8","BR","Matão",3457509,"BR","BRA135",""
"Diego & Victor Hugo, Bruno & Marrone",-22.66167,-50.41222,35300,"Facas (Ao Vivo)","VntVkQRaAS8","BR","Assis",3471374,"BR","BRA135",""
"Diego & Victor Hugo, Bruno & Marrone",-23.09861,-48.92583,24100,"Facas (Ao Vivo)","VntVkQRaAS8","BR","Avaré",3471291,"BR","BRA135",""
"Diego & Victor Hugo, Bruno & Marrone",-23.31028,-51.16278,220000,"Facas (Ao Vivo)","VntVkQRaAS8","BR","Londrina",3458449,"BR","BRA141",""
"Dilpreet Dhillon, Karan Aujla",30.33625,76.3922,70400,"Jatt Te Jawani","jBK_VpGdPWs","IN","Patiāla",1260107,"IN","INA103","INP11470"
"Dilpreet Dhillon, Karan Aujla",49.14399,-122.9068,14700,"Jatt Te Jawani","jBK_VpGdPWs","CA","Delta",5937615,"CA","CAA159","CAP1V4C"
"Dilpreet Dhillon, Karan Aujla",49.24966,-123.11934,104000,"Jatt Te Jawani","jBK_VpGdPWs","CA","Vancouver",6173331,"CA","CAA159","CAP1V5Z"
"DJ Qhelfin",-5.14861,119.43194,1060000,"Jaga Mata Jaga Hati","XbZfpXM18vY","ID","Makassar",1622786,"ID","IDA173","IDP190"
"Doja Cat",-26.0941,28.00123,16100,"Streets","jJdlgKzVsnI","ZA","Randburg",963241,"ZA","ZAA1GT",""
"Doja Cat",25.46872,-80.47756,15900,"Streets","jJdlgKzVsnI","US","Homestead",4159050,"US","USA112","USP133"
"Doja Cat",25.90175,-97.49748,45000,"Streets","jJdlgKzVsnI","US","Brownsville",4676740,"US","USA148","USP178"
"Doja Cat",25.98731,-80.23227,17000,"Streets","jJdlgKzVsnI","US","Miramar",4164601,"US","USA112","USP133"
"Doja Cat",26.00315,-80.22394,15900,"Streets","jJdlgKzVsnI","US","Pembroke Pines",4168139,"US","USA112","USP133"
"Doja Cat",26.0112,-80.14949,17300,"Streets","jJdlgKzVsnI","US","Hollywood",4158928,"US","USA112","USP133"
"Doja Cat",26.06287,-80.2331,10000,"Streets","jJdlgKzVsnI","US","Davie",4152820,"US","USA112","USP133"
"Doja Cat",26.10037,-80.39977,10000,"Streets","jJdlgKzVsnI","US","Weston",4178003,"US","USA112","USP133"
"Doja Cat",26.13421,-80.23184,10100,"Streets","jJdlgKzVsnI","US","Plantation",4168782,"US","USA112","USP133"
"Doja Cat",26.19063,-97.6961,16900,"Streets","jJdlgKzVsnI","US","Harlingen",4696233,"US","USA148","USP178"
"Doja Cat",26.20341,-98.23001,21900,"Streets","jJdlgKzVsnI","US","McAllen",4709796,"US","USA148","USP178"
"Doja Cat",26.24453,-80.20644,10000,"Streets","jJdlgKzVsnI","US","Margate",4163407,"US","USA112","USP133"
"Doja Cat",26.27119,-80.2706,14300,"Streets","jJdlgKzVsnI","US","Coral Springs",4151909,"US","USA112","USP133"
"Doja Cat",26.35869,-80.0831,10000,"Streets","jJdlgKzVsnI","US","Boca Raton",4148411,"US","USA112","USP133"
"Doja Cat",26.52535,-80.06643,13000,"Streets","jJdlgKzVsnI","US","Boynton Beach",4148677,"US","USA112","USP133"
"Doja Cat",26.62168,-81.84059,10000,"Streets","jJdlgKzVsnI","US","Fort Myers",4155995,"US","USA112","USP133"
"Doja Cat",26.65868,-80.24144,10000,"Streets","jJdlgKzVsnI","US","Wellington",4177703,"US","USA112","USP133"
"Doja Cat",26.82339,-80.13865,10000,"Streets","jJdlgKzVsnI","US","Palm Beach Gardens",4167519,"US","USA112","USP133"
"Doja Cat",27.29393,-80.35033,20500,"Streets","jJdlgKzVsnI","US","Port Saint Lucie",4169171,"US","USA112","USP134"
"Doja Cat",27.33643,-82.53065,10000,"Streets","jJdlgKzVsnI","US","Sarasota",4172131,"US","USA112","USP134"
"Doja Cat",27.49893,-82.57482,10000,"Streets","jJdlgKzVsnI","US","Bradenton",4148708,"US","USA112","USP134"
"Doja Cat",27.80058,-97.39638,50400,"Streets","jJdlgKzVsnI","US","Corpus Christi",4683416,"US","USA148","USP178"
"Doja Cat",27.8428,-82.69954,10000,"Streets","jJdlgKzVsnI","US","Pinellas Park",4168630,"US","USA112","USP133"
"Doja Cat",27.86614,-82.32648,10000,"Streets","jJdlgKzVsnI","US","Riverview",4170156,"US","USA112","USP133"
"Doja Cat",27.90979,-82.78842,10000,"Streets","jJdlgKzVsnI","US","Largo",4161580,"US","USA112","USP133"
"Doja Cat",27.9378,-82.28592,12300,"Streets","jJdlgKzVsnI","US","Brandon",4148757,"US","USA112","USP133"
"Doja Cat",27.96585,-82.8001,10000,"Streets","jJdlgKzVsnI","US","Clearwater",4151316,"US","USA112","USP133"
"Doja Cat",28.03446,-80.58866,11600,"Streets","jJdlgKzVsnI","US","Palm Bay",4167499,"US","USA112","USP132"
"Doja Cat",28.07807,-82.76371,10000,"Streets","jJdlgKzVsnI","US","Palm Harbor",4167545,"US","USA112","USP134"
"Doja Cat",28.08363,-80.60811,10000,"Streets","jJdlgKzVsnI","US","Melbourne",4163971,"US","USA112","USP132"
"Doja Cat",28.14029,-81.45841,13300,"Streets","jJdlgKzVsnI","US","Poinciana",4168930,"US","USA112","USP134"
"Doja Cat",28.56528,-81.58618,10000,"Streets","jJdlgKzVsnI","US","Winter Garden",4178550,"US","USA112","USP134"
"Doja Cat",28.66111,-81.36562,10000,"Streets","jJdlgKzVsnI","US","Altamonte Springs",4145941,"US","USA112","USP132"
"Doja Cat",28.67617,-81.51186,10000,"Streets","jJdlgKzVsnI","US","Apopka",4146166,"US","USA112","USP132"
"Doja Cat",28.80527,-97.0036,10000,"Streets","jJdlgKzVsnI","US","Victoria",4739157,"US","USA148","USP177"
"Doja Cat",28.90054,-81.26367,10300,"Streets","jJdlgKzVsnI","US","Deltona",4153146,"US","USA112","USP132"
"Doja Cat",29.42412,-98.49363,284000,"Streets","jJdlgKzVsnI","US","San Antonio",4726206,"US","USA148","USP178"
"Doja Cat",29.50745,-95.09493,10000,"Streets","jJdlgKzVsnI","US","League City",4705692,"US","USA148","USP177"
"Doja Cat",29.56357,-95.28605,17000,"Streets","jJdlgKzVsnI","US","Pearland",4718097,"US","USA148","USP177"
"Doja Cat",29.58497,-81.20784,10000,"Streets","jJdlgKzVsnI","US","Palm Coast",4167538,"US","USA112","USP132"
"Doja Cat",29.61857,-95.53772,11200,"Streets","jJdlgKzVsnI","US","Missouri City",4711801,"US","USA148","USP177"
"Doja Cat",29.61968,-95.63495,10000,"Streets","jJdlgKzVsnI","US","Sugar Land",4734825,"US","USA148","USP177"
"Doja Cat",29.69106,-95.2091,25900,"Streets","jJdlgKzVsnI","US","Pasadena",4717782,"US","USA148","USP177"
"Doja Cat",29.703,-98.12445,10000,"Streets","jJdlgKzVsnI","US","New Braunfels",4714131,"US","USA148","USP178"
"Doja Cat",29.7355,-94.97743,15300,"Streets","jJdlgKzVsnI","US","Baytown",4672731,"US","USA148","USP177"
"Doja Cat",29.88327,-97.94139,12000,"Streets","jJdlgKzVsnI","US","San Marcos",4726491,"US","USA148","USP178"
"Doja Cat",29.98409,-90.15285,10200,"Streets","jJdlgKzVsnI","US","Metairie",4333177,"US","USA122","USP170"
"Doja Cat",29.99409,-90.24174,10000,"Streets","jJdlgKzVsnI","US","Kenner",4329753,"US","USA122","USP170"
"Doja Cat",29.99883,-95.1766,11300,"Streets","jJdlgKzVsnI","US","Atascocita",4671524,"US","USA148","USP177"
"Doja Cat",30.07994,-95.41716,13500,"Streets","jJdlgKzVsnI","US","Spring",4733624,"US","USA148","USP177"
"Doja Cat",30.15799,-95.48938,12500,"Streets","jJdlgKzVsnI","US","The Woodlands",4736476,"US","USA148","USP177"
"Doja Cat",30.26715,-97.74306,248000,"Streets","jJdlgKzVsnI","US","Austin",4671654,"US","USA148","USP178"
"Doja Cat",30.31188,-95.45605,13500,"Streets","jJdlgKzVsnI","US","Conroe",4682991,"US","USA148","USP177"
"Doja Cat",30.43937,-97.62,10000,"Streets","jJdlgKzVsnI","US","Pflugerville",4718711,"US","USA148","USP178"
"Doja Cat",30.50826,-97.6789,15200,"Streets","jJdlgKzVsnI","US","Round Rock",4724129,"US","USA148","USP178"
"Doja Cat",30.62798,-96.33441,10900,"Streets","jJdlgKzVsnI","US","College Station",4682464,"US","USA148","USP177"
"Doja Cat",31.09823,-97.34278,10000,"Streets","jJdlgKzVsnI","US","Temple",4735966,"US","USA148","USP176"
"Doja Cat",31.11712,-97.7278,29600,"Streets","jJdlgKzVsnI","US","Killeen",4703223,"US","USA148","USP176"
"Doja Cat",31.54933,-97.14667,19400,"Streets","jJdlgKzVsnI","US","Waco",4739526,"US","USA148","USP176"
"Doja Cat",31.75872,-106.48693,125000,"Streets","jJdlgKzVsnI","US","El Paso",5520993,"US","USA148","USP179"
"Doja Cat",31.84568,-102.36764,18100,"Streets","jJdlgKzVsnI","US","Odessa",5527554,"US","USA148","USP179"
"Doja Cat",31.99735,-102.07791,15800,"Streets","jJdlgKzVsnI","US","Midland",5526337,"US","USA148","USP179"
"Doja Cat",32.22174,-110.92648,88300,"Streets","jJdlgKzVsnI","US","Tucson",5318313,"US","USA104","USP185"
"Doja Cat",32.31232,-106.77834,21300,"Streets","jJdlgKzVsnI","US","Las Cruces",5475352,"US","USA135","USP188"
"Doja Cat",32.35126,-95.30106,13400,"Streets","jJdlgKzVsnI","US","Tyler",4738214,"US","USA148","USP175"
"Doja Cat",32.5007,-94.74049,10000,"Streets","jJdlgKzVsnI","US","Longview",4707814,"US","USA148","USP175"
"Doja Cat",32.56319,-97.14168,10000,"Streets","jJdlgKzVsnI","US","Mansfield",4709013,"US","USA148","USP176"
"Doja Cat",32.64005,-117.0842,30500,"Streets","jJdlgKzVsnI","US","Chula Vista",5336899,"US","USA106","USP191"
"Doja Cat",32.71533,-117.15726,223000,"Streets","jJdlgKzVsnI","US","San Diego",5391811,"US","USA106","USP192"
"Doja Cat",32.72532,-114.6244,18700,"Streets","jJdlgKzVsnI","US","Yuma",5322053,"US","USA104","USP185"
"Doja Cat",32.72541,-97.32085,125000,"Streets","jJdlgKzVsnI","US","Fort Worth",4691930,"US","USA148","USP176"
"Doja Cat",32.73569,-97.10807,51900,"Streets","jJdlgKzVsnI","US","Arlington",4671240,"US","USA148","USP176"
"Doja Cat",32.74596,-96.99778,26900,"Streets","jJdlgKzVsnI","US","Grand Prairie",4694482,"US","USA148","USP175"
"Doja Cat",32.7668,-96.59916,26300,"Streets","jJdlgKzVsnI","US","Mesquite",4710826,"US","USA148","USP175"
"Doja Cat",32.76783,-117.02308,10000,"Streets","jJdlgKzVsnI","US","La Mesa",5363990,"US","USA106","USP191"
"Doja Cat",32.792,-115.56305,10000,"Streets","jJdlgKzVsnI","US","El Centro",5345609,"US","USA106","USP192"
"Doja Cat",32.79477,-116.96253,11900,"Streets","jJdlgKzVsnI","US","El Cajon",5345529,"US","USA106","USP192"
"Doja Cat",32.8343,-97.2289,10000,"Streets","jJdlgKzVsnI","US","North Richland Hills",4715292,"US","USA148","USP176"
"Doja Cat",32.91262,-96.63888,29800,"Streets","jJdlgKzVsnI","US","Garland",4693003,"US","USA148","USP175"
"Doja Cat",32.94818,-96.72972,10000,"Streets","jJdlgKzVsnI","US","Richardson",4722625,"US","USA148","USP175"
"Doja Cat",32.95373,-96.89028,14400,"Streets","jJdlgKzVsnI","US","Carrollton",4679195,"US","USA148","USP175"
"Doja Cat",32.96282,-117.03586,10000,"Streets","jJdlgKzVsnI","US","Poway",5384690,"US","USA106","USP192"
"Doja Cat",33.01512,-96.53888,10000,"Streets","jJdlgKzVsnI","US","Wylie",4743275,"US","USA148","USP175"
"Doja Cat",33.01984,-96.69889,19800,"Streets","jJdlgKzVsnI","US","Plano",4719457,"US","USA148","USP175"
"Doja Cat",33.04623,-96.99417,11700,"Streets","jJdlgKzVsnI","US","Lewisville",4706057,"US","USA148","USP175"
"Doja Cat",33.10317,-96.67055,14000,"Streets","jJdlgKzVsnI","US","Allen",4670300,"US","USA148","USP175"
"Doja Cat",33.11921,-117.08642,20900,"Streets","jJdlgKzVsnI","US","Escondido",5346827,"US","USA106","USP192"
"Doja Cat",33.14337,-117.16614,10000,"Streets","jJdlgKzVsnI","US","San Marcos",5392368,"US","USA106","USP192"
"Doja Cat",33.15809,-117.35059,10000,"Streets","jJdlgKzVsnI","US","Carlsbad",5334223,"US","USA106","USP192"
"Doja Cat",33.19587,-117.37948,17600,"Streets","jJdlgKzVsnI","US","Oceanside",5378771,"US","USA106","USP192"
"Doja Cat",33.19762,-96.61527,14700,"Streets","jJdlgKzVsnI","US","McKinney",4710178,"US","USA148","USP175"
"Doja Cat",33.20004,-117.24254,11500,"Streets","jJdlgKzVsnI","US","Vista",5406602,"US","USA106","USP192"
"Doja Cat",33.21484,-97.13307,13200,"Streets","jJdlgKzVsnI","US","Denton",4685907,"US","USA148","USP176"
"Doja Cat",33.30616,-111.84125,21000,"Streets","jJdlgKzVsnI","US","Chandler",5289282,"US","USA104","USP185"
"Doja Cat",33.35283,-111.78903,14700,"Streets","jJdlgKzVsnI","US","Gilbert",5295903,"US","USA104","USP185"
"Doja Cat",33.41477,-111.90931,16800,"Streets","jJdlgKzVsnI","US","Tempe",5317058,"US","USA104","USP185"
"Doja Cat",33.42227,-111.82264,47600,"Streets","jJdlgKzVsnI","US","Mesa",5304391,"US","USA104","USP185"
"Doja Cat",33.43532,-112.35821,10000,"Streets","jJdlgKzVsnI","US","Goodyear",5296266,"US","USA104","USP185"
"Doja Cat",33.4356,-112.3496,13700,"Streets","jJdlgKzVsnI","US","Avondale",5552301,"US","USA104","USP185"
"Doja Cat",33.49364,-117.14836,11800,"Streets","jJdlgKzVsnI","US","Temecula",5401395,"US","USA106","USP192"
"Doja Cat",33.50921,-111.89903,10700,"Streets","jJdlgKzVsnI","US","Scottsdale",5313457,"US","USA104","USP185"
"Doja Cat",33.52253,-117.70755,10000,"Streets","jJdlgKzVsnI","US","Laguna Niguel",5364329,"US","USA106","USP192"
"Doja Cat",33.53865,-112.18599,32299,"Streets","jJdlgKzVsnI","US","Glendale",5295985,"US","USA104","USP185"
"Doja Cat",33.55391,-117.21392,12300,"Streets","jJdlgKzVsnI","US","Murrieta",5375911,"US","USA106","USP192"
"Doja Cat",33.57786,-101.85517,30400,"Streets","jJdlgKzVsnI","US","Lubbock",5525577,"US","USA148","USP179"
"Doja Cat",33.5806,-112.23738,13900,"Streets","jJdlgKzVsnI","US","Peoria",5308480,"US","USA104","USP185"
"Doja Cat",33.60002,-117.672,10000,"Streets","jJdlgKzVsnI","US","Mission Viejo",5373763,"US","USA106","USP192"
"Doja Cat",33.63059,-112.33322,13200,"Streets","jJdlgKzVsnI","US","Surprise",5316428,"US","USA104","USP185"
"Doja Cat",33.64113,-117.91867,10000,"Streets","jJdlgKzVsnI","US","Costa Mesa",5339840,"US","USA106","USP192"
"Doja Cat",33.64697,-117.68922,10000,"Streets","jJdlgKzVsnI","US","Lake Forest",5364514,"US","USA106","USP192"
"Doja Cat",33.6603,-117.99923,10600,"Streets","jJdlgKzVsnI","US","Huntington Beach",5358705,"US","USA106","USP192"
"Doja Cat",33.66808,-117.32726,14000,"Streets","jJdlgKzVsnI","US","Lake Elsinore",5364499,"US","USA106","USP192"
"Doja Cat",33.7207,-116.21677,15900,"Streets","jJdlgKzVsnI","US","Indio",5359446,"US","USA106","USP192"
"Doja Cat",33.72255,-116.37697,10000,"Streets","jJdlgKzVsnI","US","Palm Desert",5380626,"US","USA106","USP192"
"Doja Cat",33.72835,-117.14642,12800,"Streets","jJdlgKzVsnI","US","Menifee",5372205,"US","USA106","USP192"
"Doja Cat",33.74557,-117.86783,58200,"Streets","jJdlgKzVsnI","US","Santa Ana",5392900,"US","USA106","USP192"
"Doja Cat",33.74585,-117.82617,10000,"Streets","jJdlgKzVsnI","US","Tustin",5404119,"US","USA106","USP192"
"Doja Cat",33.74761,-116.97307,15300,"Streets","jJdlgKzVsnI","US","Hemet",5356277,"US","USA106","USP192"
"Doja Cat",33.75918,-118.00673,10000,"Streets","jJdlgKzVsnI","US","Westminster",5408406,"US","USA106","USP192"
"Doja Cat",33.76696,-118.18923,57700,"Streets","jJdlgKzVsnI","US","Long Beach",5367929,"US","USA106","USP190"
"Doja Cat",33.77391,-117.94145,19400,"Streets","jJdlgKzVsnI","US","Garden Grove",5351515,"US","USA106","USP192"
"Doja Cat",33.78252,-117.22865,20900,"Streets","jJdlgKzVsnI","US","Perris",5382146,"US","USA106","USP192"
"Doja Cat",33.78391,-116.95864,10000,"Streets","jJdlgKzVsnI","US","San Jacinto",5392090,"US","USA106","USP192"
"Doja Cat",33.81696,-118.03729,10000,"Streets","jJdlgKzVsnI","US","Cypress",5341256,"US","USA106","USP190"
"Doja Cat",33.8303,-116.54529,10000,"Streets","jJdlgKzVsnI","US","Palm Springs",5380668,"US","USA106","USP192"
"Doja Cat",33.83141,-118.28202,11600,"Streets","jJdlgKzVsnI","US","Carson",5334519,"US","USA106","USP190"
"Doja Cat",33.83529,-117.9145,52000,"Streets","jJdlgKzVsnI","US","Anaheim",5323810,"US","USA106","USP192"
"Doja Cat",33.86751,-117.99812,10000,"Streets","jJdlgKzVsnI","US","Buena Park",5331575,"US","USA106","USP190"
"Doja Cat",33.87029,-117.92534,13100,"Streets","jJdlgKzVsnI","US","Fullerton",5351247,"US","USA106","USP192"
"Doja Cat",33.87529,-117.56644,20900,"Streets","jJdlgKzVsnI","US","Corona",5339631,"US","USA106","USP192"
"Doja Cat",33.88168,-118.11701,10600,"Streets","jJdlgKzVsnI","US","Bellflower",5327422,"US","USA106","USP190"
"Doja Cat",33.88946,-118.15979,10000,"Streets","jJdlgKzVsnI","US","Paramount",5381110,"US","USA106","USP190"
"Doja Cat",33.89585,-118.22007,29200,"Streets","jJdlgKzVsnI","US","Compton",5339066,"US","USA106","USP190"
"Doja Cat",33.90224,-118.08173,14100,"Streets","jJdlgKzVsnI","US","Norwalk",5377995,"US","USA106","USP190"
"Doja Cat",33.91371,-98.49339,10000,"Streets","jJdlgKzVsnI","US","Wichita Falls",4741752,"US","USA148","USP176"
"Doja Cat",33.9164,-118.35257,13700,"Streets","jJdlgKzVsnI","US","Hawthorne",5355828,"US","USA106","USP190"
"Doja Cat",33.92427,-84.37854,10000,"Streets","jJdlgKzVsnI","US","Sandy Springs",4221333,"US","USA113","USP130"
"Doja Cat",33.93029,-118.21146,10000,"Streets","jJdlgKzVsnI","US","Lynwood",5369367,"US","USA106","USP190"
"Doja Cat",33.93196,-117.94617,10000,"Streets","jJdlgKzVsnI","US","La Habra",5363922,"US","USA106","USP190"
"Doja Cat",33.94001,-118.13257,18100,"Streets","jJdlgKzVsnI","US","Downey",5343858,"US","USA106","USP190"
"Doja Cat",33.95335,-117.39616,55300,"Streets","jJdlgKzVsnI","US","Riverside",5387877,"US","USA106","USP192"
"Doja Cat",33.95474,-118.21202,18300,"Streets","jJdlgKzVsnI","US","South Gate",5397603,"US","USA106","USP190"
"Doja Cat",33.96168,-118.35313,16400,"Streets","jJdlgKzVsnI","US","Inglewood",5359488,"US","USA106","USP190"
"Doja Cat",33.97918,-118.03284,11200,"Streets","jJdlgKzVsnI","US","Whittier",5409059,"US","USA106","USP190"
"Doja Cat",33.98168,-118.22507,10000,"Streets","jJdlgKzVsnI","US","Huntington Park",5358736,"US","USA106","USP190"
"Doja Cat",33.98307,-118.09673,10000,"Streets","jJdlgKzVsnI","US","Pico Rivera",5382496,"US","USA106","USP190"
"Doja Cat",33.99307,-117.96868,10000,"Streets","jJdlgKzVsnI","US","Hacienda Heights",5354819,"US","USA106","USP191"
"Doja Cat",34.00946,-118.10535,10000,"Streets","jJdlgKzVsnI","US","Montebello",5374322,"US","USA106","USP190"
"Doja Cat",34.01223,-117.68894,10400,"Streets","jJdlgKzVsnI","US","Chino",5336537,"US","USA106","USP191"
"Doja Cat",34.02316,-84.36159,10000,"Streets","jJdlgKzVsnI","US","Roswell",4219934,"US","USA113","USP130"
"Doja Cat",34.0239,-118.17202,19200,"Streets","jJdlgKzVsnI","US","East Los Angeles",5344994,"US","USA106","USP190"
"Doja Cat",34.03363,-117.04309,10000,"Streets","jJdlgKzVsnI","US","Yucaipa",5411046,"US","USA106","USP192"
"Doja Cat",34.05223,-118.24368,1190000,"Streets","jJdlgKzVsnI","US","Los Angeles",5368361,"US","USA106","USP190"
"Doja Cat",34.05529,-117.75228,23900,"Streets","jJdlgKzVsnI","US","Pomona",5384170,"US","USA106","USP191"
"Doja Cat",34.05557,-117.18254,10000,"Streets","jJdlgKzVsnI","US","Redlands",5386754,"US","USA106","USP192"
"Doja Cat",34.06334,-117.65089,28800,"Streets","jJdlgKzVsnI","US","Ontario",5379439,"US","USA106","USP191"
"Doja Cat",34.06862,-117.93895,15300,"Streets","jJdlgKzVsnI","US","West Covina",5407933,"US","USA106","USP191"
"Doja Cat",34.06862,-118.02757,15300,"Streets","jJdlgKzVsnI","US","El Monte",5345743,"US","USA106","USP191"
"Doja Cat",34.0739,-117.31365,10000,"Streets","jJdlgKzVsnI","US","Colton",5338783,"US","USA106","USP192"
"Doja Cat",34.08057,-118.07285,10000,"Streets","jJdlgKzVsnI","US","Rosemead",5388867,"US","USA106","USP191"
"Doja Cat",34.08529,-117.9609,10000,"Streets","jJdlgKzVsnI","US","Baldwin Park",5325866,"US","USA106","USP191"
"Doja Cat",34.09001,-117.89034,10000,"Streets","jJdlgKzVsnI","US","Covina",5340175,"US","USA106","USP191"
"Doja Cat",34.09223,-117.43505,40500,"Streets","jJdlgKzVsnI","US","Fontana",5349755,"US","USA106","USP192"
"Doja Cat",34.09529,-118.12701,10000,"Streets","jJdlgKzVsnI","US","Alhambra",5323060,"US","USA106","USP191"
"Doja Cat",34.09751,-117.64839,10000,"Streets","jJdlgKzVsnI","US","Upland",5404915,"US","USA106","USP191"
"Doja Cat",34.1064,-117.59311,17600,"Streets","jJdlgKzVsnI","US","Rancho Cucamonga",5385955,"US","USA106","USP191"
"Doja Cat",34.10834,-117.28977,59200,"Streets","jJdlgKzVsnI","US","San Bernardino",5391710,"US","USA106","USP192"
"Doja Cat",34.14251,-118.25508,12800,"Streets","jJdlgKzVsnI","US","Glendale",5352423,"US","USA106","USP191"
"Doja Cat",34.14778,-118.14452,11300,"Streets","jJdlgKzVsnI","US","Pasadena",5381396,"US","USA106","USP191"
"Doja Cat",34.16056,-118.26452,12800,"Streets","jJdlgKzVsnI","US","North Glendale",5377613,"US","USA106","USP191"
"Doja Cat",34.17056,-118.83759,10000,"Streets","jJdlgKzVsnI","US","Thousand Oaks",5402405,"US","USA106","USP191"
"Doja Cat",34.1975,-119.17705,39000,"Streets","jJdlgKzVsnI","US","Oxnard",5380184,"US","USA106","USP193"
"Doja Cat",34.21639,-119.0376,10000,"Streets","jJdlgKzVsnI","US","Camarillo",5333180,"US","USA106","USP193"
"Doja Cat",34.26945,-118.78148,10000,"Streets","jJdlgKzVsnI","US","Simi Valley",5396003,"US","USA106","USP193"
"Doja Cat",34.27834,-119.29317,10500,"Streets","jJdlgKzVsnI","US","Ventura",5405878,"US","USA106","USP193"
"Doja Cat",34.39166,-118.54259,22900,"Streets","jJdlgKzVsnI","US","Santa Clarita",5393049,"US","USA106","USP191"
"Doja Cat",34.42083,-119.69819,10000,"Streets","jJdlgKzVsnI","US","Santa Barbara",5392952,"US","USA106","USP193"
"Doja Cat",34.42639,-117.30088,16800,"Streets","jJdlgKzVsnI","US","Hesperia",5356576,"US","USA106","USP192"
"Doja Cat",34.4839,-114.32245,10000,"Streets","jJdlgKzVsnI","US","Lake Havasu City",5301388,"US","USA104","USP186"
"Doja Cat",34.50083,-117.18588,11600,"Streets","jJdlgKzVsnI","US","Apple Valley",5324363,"US","USA106","USP192"
"Doja Cat",34.53611,-117.29116,30000,"Streets","jJdlgKzVsnI","US","Victorville",5406222,"US","USA106","USP192"
"Doja Cat",34.57943,-118.11646,35200,"Streets","jJdlgKzVsnI","US","Palmdale",5380698,"US","USA106","USP193"
"Doja Cat",34.60869,-98.39033,11500,"Streets","jJdlgKzVsnI","US","Lawton",4540737,"US","USA140","USP173"
"Doja Cat",34.69804,-118.13674,33300,"Streets","jJdlgKzVsnI","US","Lancaster",5364940,"US","USA106","USP193"
"Doja Cat",34.75405,-77.43024,11000,"Streets","jJdlgKzVsnI","US","Jacksonville",4473083,"US","USA137","USP128"
"Doja Cat",34.95303,-120.43572,18200,"Streets","jJdlgKzVsnI","US","Santa Maria",5393180,"US","USA106","USP193"
"Doja Cat",35.08449,-106.65114,123000,"Streets","jJdlgKzVsnI","US","Albuquerque",5454711,"US","USA135","USP187"
"Doja Cat",35.19807,-111.65127,10000,"Streets","jJdlgKzVsnI","US","Flagstaff",5294810,"US","USA104","USP186"
"Doja Cat",35.22257,-97.43948,10000,"Streets","jJdlgKzVsnI","US","Norman",4543762,"US","USA140","USP173"
"Doja Cat",35.28275,-120.65962,10000,"Streets","jJdlgKzVsnI","US","San Luis Obispo",5392323,"US","USA106","USP193"
"Doja Cat",35.33951,-97.4867,10000,"Streets","jJdlgKzVsnI","US","Moore",4542975,"US","USA140","USP173"
"Doja Cat",35.37329,-119.01871,91200,"Streets","jJdlgKzVsnI","US","Bakersfield",5325738,"US","USA106","USP193"
"Doja Cat",35.40888,-80.58158,12400,"Streets","jJdlgKzVsnI","US","Concord",4461574,"US","USA137","USP128"
"Doja Cat",35.44951,-97.3967,10000,"Streets","jJdlgKzVsnI","US","Midwest City",4542765,"US","USA140","USP173"
"Doja Cat",35.60095,-82.55402,10000,"Streets","jJdlgKzVsnI","US","Asheville",4453066,"US","USA137","USP128"
"Doja Cat",35.65283,-97.4781,10000,"Streets","jJdlgKzVsnI","US","Edmond",4535740,"US","USA140","USP173"
"Doja Cat",35.68698,-105.9378,10000,"Streets","jJdlgKzVsnI","US","Santa Fe",5490263,"US","USA135","USP187"
"Doja Cat",35.76884,-119.24705,10900,"Streets","jJdlgKzVsnI","US","Delano",5342485,"US","USA106","USP193"
"Doja Cat",35.9132,-79.05584,10000,"Streets","jJdlgKzVsnI","US","Chapel Hill",4460162,"US","USA137","USP127"
"Doja Cat",36.0526,-95.79082,10000,"Streets","jJdlgKzVsnI","US","Broken Arrow",4531405,"US","USA140","USP174"
"Doja Cat",36.06523,-119.01677,14900,"Streets","jJdlgKzVsnI","US","Porterville",5384471,"US","USA106","USP193"
"Doja Cat",36.11561,-97.05837,10000,"Streets","jJdlgKzVsnI","US","Stillwater",4552215,"US","USA140","USP174"
"Doja Cat",36.15398,-95.99277,41100,"Streets","jJdlgKzVsnI","US","Tulsa",4553433,"US","USA140","USP174"
"Doja Cat",36.18674,-94.12881,10200,"Streets","jJdlgKzVsnI","US","Springdale",4132093,"US","USA105","USP172"
"Doja Cat",36.20773,-119.34734,13900,"Streets","jJdlgKzVsnI","US","Tulare",5403783,"US","USA106","USP193"
"Doja Cat",36.31344,-82.35347,10000,"Streets","jJdlgKzVsnI","US","Johnson City",4633419,"US","USA147","USP137"
"Doja Cat",36.32745,-119.64568,10900,"Streets","jJdlgKzVsnI","US","Hanford",5355180,"US","USA106","USP193"
"Doja Cat",36.33023,-119.29206,23400,"Streets","jJdlgKzVsnI","US","Visalia",5406567,"US","USA106","USP193"
"Doja Cat",36.33202,-94.11854,10000,"Streets","jJdlgKzVsnI","US","Rogers",4128894,"US","USA105","USP172"
"Doja Cat",36.67774,-121.6555,31600,"Streets","jJdlgKzVsnI","US","Salinas",5391295,"US","USA106","USP193"
"Doja Cat",36.74773,-119.77237,107000,"Streets","jJdlgKzVsnI","US","Fresno",5350937,"US","USA106","USP193"
"Doja Cat",36.82523,-119.70292,11300,"Streets","jJdlgKzVsnI","US","Clovis",5338122,"US","USA106","USP193"
"Doja Cat",36.91023,-121.75689,11800,"Streets","jJdlgKzVsnI","US","Watsonville",5407529,"US","USA106","USP195"
"Doja Cat",36.96134,-120.06072,14400,"Streets","jJdlgKzVsnI","US","Madera",5369568,"US","USA106","USP193"
"Doja Cat",36.97412,-122.0308,10000,"Streets","jJdlgKzVsnI","US","Santa Cruz",5393052,"US","USA106","USP195"
"Doja Cat",37.00578,-121.56828,10000,"Streets","jJdlgKzVsnI","US","Gilroy",5352214,"US","USA106","USP195"
"Doja Cat",37.30216,-120.48297,19000,"Streets","jJdlgKzVsnI","US","Merced",5372253,"US","USA106","USP195"
"Doja Cat",37.33939,-121.89496,236000,"Streets","jJdlgKzVsnI","US","San Jose",5392171,"US","USA106","USP195"
"Doja Cat",37.44188,-122.14302,10000,"Streets","jJdlgKzVsnI","US","Palo Alto",5380748,"US","USA106","USP194"
"Doja Cat",37.48522,-122.23635,10000,"Streets","jJdlgKzVsnI","US","Redwood City",5386834,"US","USA106","USP194"
"Doja Cat",37.49466,-120.84659,10000,"Streets","jJdlgKzVsnI","US","Turlock",5404024,"US","USA106","USP195"
"Doja Cat",37.56299,-122.32553,10000,"Streets","jJdlgKzVsnI","US","San Mateo",5392423,"US","USA106","USP194"
"Doja Cat",37.59015,-77.55638,10000,"Streets","jJdlgKzVsnI","US","Tuckahoe",4790207,"US","USA151","USP123"
"Doja Cat",37.59493,-120.95771,10000,"Streets","jJdlgKzVsnI","US","Ceres",5335650,"US","USA106","USP195"
"Doja Cat",37.6391,-120.99688,31900,"Streets","jJdlgKzVsnI","US","Modesto",5373900,"US","USA106","USP195"
"Doja Cat",37.66882,-122.0808,22800,"Streets","jJdlgKzVsnI","US","Hayward",5355933,"US","USA106","USP194"
"Doja Cat",37.69224,-97.33754,37100,"Streets","jJdlgKzVsnI","US","Wichita",4281730,"US","USA120","USP167"
"Doja Cat",37.72493,-122.15608,10000,"Streets","jJdlgKzVsnI","US","San Leandro",5392263,"US","USA106","USP194"
"Doja Cat",37.73987,-121.42618,12300,"Streets","jJdlgKzVsnI","US","Tracy",5403191,"US","USA106","USP195"
"Doja Cat",37.79743,-121.21605,10800,"Streets","jJdlgKzVsnI","US","Manteca",5370164,"US","USA106","USP195"
"Doja Cat",37.80437,-122.2708,45300,"Streets","jJdlgKzVsnI","US","Oakland",5378538,"US","USA106","USP194"
"Doja Cat",37.90631,-122.06496,10000,"Streets","jJdlgKzVsnI","US","Walnut Creek",5406990,"US","USA106","USP194"
"Doja Cat",37.93187,-121.69579,10000,"Streets","jJdlgKzVsnI","US","Brentwood",5330642,"US","USA106","USP194"
"Doja Cat",37.93576,-122.34775,20100,"Streets","jJdlgKzVsnI","US","Richmond",5387428,"US","USA106","USP194"
"Doja Cat",37.9577,-121.29078,64300,"Streets","jJdlgKzVsnI","US","Stockton",5399020,"US","USA106","USP195"
"Doja Cat",37.97353,-122.53109,10000,"Streets","jJdlgKzVsnI","US","San Rafael",5392567,"US","USA106","USP194"
"Doja Cat",37.97798,-122.03107,10600,"Streets","jJdlgKzVsnI","US","Concord",5339111,"US","USA106","USP194"
"Doja Cat",38.00492,-121.80579,17500,"Streets","jJdlgKzVsnI","US","Antioch",5324200,"US","USA106","USP194"
"Doja Cat",38.02798,-121.88468,11000,"Streets","jJdlgKzVsnI","US","Pittsburg",5383465,"US","USA106","USP194"
"Doja Cat",38.10409,-122.25664,16600,"Streets","jJdlgKzVsnI","US","Vallejo",5405380,"US","USA106","USP194"
"Doja Cat",38.1302,-121.27245,10000,"Streets","jJdlgKzVsnI","US","Lodi",5367565,"US","USA106","USP195"
"Doja Cat",38.24936,-122.03997,14900,"Streets","jJdlgKzVsnI","US","Fairfield",5347335,"US","USA106","USP194"
"Doja Cat",38.29714,-122.28553,10000,"Streets","jJdlgKzVsnI","US","Napa",5376095,"US","USA106","USP194"
"Doja Cat",38.35658,-121.98774,10000,"Streets","jJdlgKzVsnI","US","Vacaville",5405228,"US","USA106","USP195"
"Doja Cat",38.4088,-121.37162,19200,"Streets","jJdlgKzVsnI","US","Elk Grove",5346111,"US","USA106","USP195"
"Doja Cat",38.54491,-121.74052,10000,"Streets","jJdlgKzVsnI","US","Davis",5341704,"US","USA106","USP195"
"Doja Cat",38.58046,-121.53023,10000,"Streets","jJdlgKzVsnI","US","West Sacramento",5408211,"US","USA106","USP195"
"Doja Cat",38.58907,-121.30273,10000,"Streets","jJdlgKzVsnI","US","Rancho Cordova",5385941,"US","USA106","USP195"
"Doja Cat",38.63706,-77.31109,12000,"Streets","jJdlgKzVsnI","US","Dale City",4755158,"US","USA151","USP122"
"Doja Cat",38.67796,-121.17606,10000,"Streets","jJdlgKzVsnI","US","Folsom",5349705,"US","USA106","USP195"
"Doja Cat",38.68789,-77.29776,10000,"Streets","jJdlgKzVsnI","US","Lake Ridge",4768351,"US","USA151","USP122"
"Doja Cat",38.70712,-121.28106,10000,"Streets","jJdlgKzVsnI","US","Citrus Heights",5337561,"US","USA106","USP195"
"Doja Cat",38.75095,-77.47527,10000,"Streets","jJdlgKzVsnI","US","Manassas",4771401,"US","USA151","USP120"
"Doja Cat",38.75212,-121.28801,10000,"Streets","jJdlgKzVsnI","US","Roseville",5388881,"US","USA106","USP195"
"Doja Cat",38.80484,-77.04692,11000,"Streets","jJdlgKzVsnI","US","Alexandria",4744091,"US","USA151","USP122"
"Doja Cat",38.83039,-77.19637,10000,"Streets","jJdlgKzVsnI","US","Annandale",4744468,"US","USA151","USP122"
"Doja Cat",38.83388,-104.82136,39500,"Streets","jJdlgKzVsnI","US","Colorado Springs",5417598,"US","USA108","USP180"
"Doja Cat",38.84039,-77.42888,10000,"Streets","jJdlgKzVsnI","US","Centreville",4751839,"US","USA151","USP120"
"Doja Cat",38.8814,-94.81913,10000,"Streets","jJdlgKzVsnI","US","Olathe",4276614,"US","USA120","USP166"
"Doja Cat",38.94278,-76.73028,10000,"Streets","jJdlgKzVsnI","US","Bowie",4349159,"US","USA124","USP120"
"Doja Cat",38.96872,-77.3411,10000,"Streets","jJdlgKzVsnI","US","Reston",4781530,"US","USA151","USP120"
"Doja Cat",38.97167,-95.23525,10000,"Streets","jJdlgKzVsnI","US","Lawrence",4274277,"US","USA120","USP166"
"Doja Cat",38.98223,-94.67079,10000,"Streets","jJdlgKzVsnI","US","Overland Park",4276873,"US","USA120","USP166"
"Doja Cat",38.99067,-77.02609,10000,"Streets","jJdlgKzVsnI","US","Silver Spring",4369596,"US","USA124","USP120"
"Doja Cat",39.04455,-77.11887,10000,"Streets","jJdlgKzVsnI","US","North Bethesda",4363843,"US","USA124","USP120"
"Doja Cat",39.04833,-95.67804,12700,"Streets","jJdlgKzVsnI","US","Topeka",4280539,"US","USA120","USP166"
"Doja Cat",39.084,-77.15276,10000,"Streets","jJdlgKzVsnI","US","Rockville",4367175,"US","USA124","USP120"
"Doja Cat",39.09112,-94.41551,10700,"Streets","jJdlgKzVsnI","US","Independence",4391812,"US","USA129","USP164"
"Doja Cat",39.11566,-77.5636,10000,"Streets","jJdlgKzVsnI","US","Leesburg",4769125,"US","USA151","USP120"
"Doja Cat",39.14045,-121.61691,10000,"Streets","jJdlgKzVsnI","US","Yuba City",5411015,"US","USA106","USP195"
"Doja Cat",39.14344,-77.20137,10000,"Streets","jJdlgKzVsnI","US","Gaithersburg",4355843,"US","USA124","USP120"
"Doja Cat",39.16261,-76.62469,10000,"Streets","jJdlgKzVsnI","US","Glen Burnie",4356188,"US","USA124","USP121"
"Doja Cat",39.17316,-77.27165,10000,"Streets","jJdlgKzVsnI","US","Germantown",4356050,"US","USA124","USP120"
"Doja Cat",39.24038,-76.83942,10500,"Streets","jJdlgKzVsnI","US","Columbia",4352053,"US","USA124","USP121"
"Doja Cat",39.41427,-77.41054,10000,"Streets","jJdlgKzVsnI","US","Frederick",4355585,"US","USA124","USP121"
"Doja Cat",39.48623,-75.02573,10000,"Streets","jJdlgKzVsnI","US","Vineland",4504621,"US","USA134","USP108"
"Doja Cat",39.52963,-119.8138,25700,"Streets","jJdlgKzVsnI","US","Reno",5511077,"US","USA132","USP189"
"Doja Cat",39.70471,-105.08137,10700,"Streets","jJdlgKzVsnI","US","Lakewood",5427946,"US","USA108","USP180"
"Doja Cat",39.72849,-121.83748,10000,"Streets","jJdlgKzVsnI","US","Chico",5336269,"US","USA106","USP195"
"Doja Cat",39.72943,-104.83192,42200,"Streets","jJdlgKzVsnI","US","Aurora",5412347,"US","USA108","USP180"
"Doja Cat",39.7765,-74.86238,10000,"Streets","jJdlgKzVsnI","US","Jackson",4502434,"US","USA134","USP108"
"Doja Cat",39.80276,-105.08748,10000,"Streets","jJdlgKzVsnI","US","Arvada",5412199,"US","USA108","USP180"
"Doja Cat",39.83665,-105.0372,11300,"Streets","jJdlgKzVsnI","US","Westminster",5443910,"US","USA108","USP180"
"Doja Cat",39.86804,-104.97192,16400,"Streets","jJdlgKzVsnI","US","Thornton",5441492,"US","USA108","USP180"
"Doja Cat",39.934,-74.891,10000,"Streets","jJdlgKzVsnI","US","Mount Laurel",4503136,"US","USA134","USP108"
"Doja Cat",39.93484,-75.03073,10000,"Streets","jJdlgKzVsnI","US","Cherry Hill",4501198,"US","USA134","USP108"
"Doja Cat",40.01499,-105.27055,10000,"Streets","jJdlgKzVsnI","US","Boulder",5574991,"US","USA108","USP180"
"Doja Cat",40.42331,-104.70913,11300,"Streets","jJdlgKzVsnI","US","Greeley",5577592,"US","USA108","USP180"
"Doja Cat",40.48622,-74.45182,10000,"Streets","jJdlgKzVsnI","US","New Brunswick",5101717,"US","USA134","USP108"
"Doja Cat",40.49927,-74.39904,10000,"Streets","jJdlgKzVsnI","US","Piscataway",5102713,"US","USA134","USP108"
"Doja Cat",40.58526,-105.08442,10000,"Streets","jJdlgKzVsnI","US","Fort Collins",5577147,"US","USA108","USP180"
"Doja Cat",40.58654,-122.39168,10000,"Streets","jJdlgKzVsnI","US","Redding",5570160,"US","USA106","USP196"
"Doja Cat",40.62205,-74.24459,10000,"Streets","jJdlgKzVsnI","US","Linden",5100506,"US","USA134","USP107"
"Doja Cat",40.66094,-73.92014,45000,"Streets","jJdlgKzVsnI","US","Brownsville",5110446,"US","USA136","USP111"
"Doja Cat",40.66871,-74.11431,10000,"Streets","jJdlgKzVsnI","US","Bayonne",5095445,"US","USA134","USP107"
"Doja Cat",40.69161,-112.00105,17000,"Streets","jJdlgKzVsnI","US","West Valley City",5784607,"US","USA149","USP184"
"Doja Cat",40.6976,-74.2632,10000,"Streets","jJdlgKzVsnI","US","Union",5105608,"US","USA134","USP107"
"Doja Cat",40.72816,-74.07764,29600,"Streets","jJdlgKzVsnI","US","Jersey City",5099836,"US","USA134","USP107"
"Doja Cat",40.74705,-73.86014,20900,"Streets","jJdlgKzVsnI","US","Corona",5113779,"US","USA136","USP111"
"Doja Cat",40.76843,-73.52513,10000,"Streets","jJdlgKzVsnI","US","Hicksville",5120656,"US","USA136","USP111"
"Doja Cat",40.78949,-74.26277,10000,"Streets","jJdlgKzVsnI","US","West Orange",7259174,"US","USA134","USP107"
"Doja Cat",40.79871,-74.23904,10000,"Streets","jJdlgKzVsnI","US","West Orange",5106298,"US","USA134","USP107"
"Doja Cat",40.80677,-74.18542,10000,"Streets","jJdlgKzVsnI","US","Bloomfield",5095779,"US","USA134","USP107"
"Doja Cat",40.8976,-74.01597,10000,"Streets","jJdlgKzVsnI","US","Teaneck",5105262,"US","USA134","USP107"
"Doja Cat",40.91149,-73.78235,10000,"Streets","jJdlgKzVsnI","US","New Rochelle",5128549,"US","USA136","USP110"
"Doja Cat",40.92501,-98.34201,10000,"Streets","jJdlgKzVsnI","US","Grand Island",5069297,"US","USA131","USP168"
"Doja Cat",40.92538,-74.27654,10000,"Streets","jJdlgKzVsnI","US","Wayne",5106160,"US","USA134","USP107"
"Doja Cat",41.03399,-73.76291,10000,"Streets","jJdlgKzVsnI","US","White Plains",5144336,"US","USA136","USP110"
"Doja Cat",41.05343,-73.53873,10300,"Streets","jJdlgKzVsnI","US","Stamford",4843564,"US","USA109","USP106"
"Doja Cat",41.10565,-73.39845,10000,"Streets","jJdlgKzVsnI","US","East Norwalk",4833505,"US","USA109","USP106"
"Doja Cat",41.1176,-73.4079,10000,"Streets","jJdlgKzVsnI","US","Norwalk",4839822,"US","USA109","USP106"
"Doja Cat",41.13667,-95.89084,10000,"Streets","jJdlgKzVsnI","US","Bellevue",5063805,"US","USA131","USP168"
"Doja Cat",41.223,-111.97383,10000,"Streets","jJdlgKzVsnI","US","Ogden",5779206,"US","USA149","USP184"
"Doja Cat",41.53815,-72.80704,10000,"Streets","jJdlgKzVsnI","US","Meriden",4838524,"US","USA109","USP106"
"Doja Cat",41.62697,-88.20395,10000,"Streets","jJdlgKzVsnI","US","Plainfield",4906125,"US","USA117","USP160"
"Doja Cat",41.69864,-88.0684,10000,"Streets","jJdlgKzVsnI","US","Bolingbrook",4885265,"US","USA117","USP160"
"Doja Cat",41.76058,-88.32007,21600,"Streets","jJdlgKzVsnI","US","Aurora",4883817,"US","USA117","USP160"
"Doja Cat",41.80892,-88.01117,10000,"Streets","jJdlgKzVsnI","US","Downers Grove",4890119,"US","USA117","USP160"
"Doja Cat",41.85059,-87.79367,10000,"Streets","jJdlgKzVsnI","US","Berwyn",4884597,"US","USA117","USP160"
"Doja Cat",42.03336,-87.73339,10000,"Streets","jJdlgKzVsnI","US","Skokie",4911600,"US","USA117","USP160"
"Doja Cat",42.03336,-87.8834,10000,"Streets","jJdlgKzVsnI","US","Des Plaines",4889772,"US","USA117","USP160"
"Doja Cat",42.03336,-88.08341,10000,"Streets","jJdlgKzVsnI","US","Schaumburg",4910713,"US","USA117","USP160"
"Doja Cat",42.03725,-88.28119,13900,"Streets","jJdlgKzVsnI","US","Elgin",4890864,"US","USA117","USP160"
"Doja Cat",42.04114,-87.69006,10000,"Streets","jJdlgKzVsnI","US","Evanston",4891382,"US","USA117","USP160"
"Doja Cat",42.08836,-87.98063,10000,"Streets","jJdlgKzVsnI","US","Arlington Heights",4883555,"US","USA117","USP160"
"Doja Cat",42.1103,-88.03424,10000,"Streets","jJdlgKzVsnI","US","Palatine",4905211,"US","USA117","USP160"
"Doja Cat",42.25288,-71.00227,10000,"Streets","jJdlgKzVsnI","US","Quincy",4948247,"US","USA125","USP102"
"Doja Cat",42.27756,-83.74088,10000,"Streets","jJdlgKzVsnI","US","Ann Arbor",4984247,"US","USA126","USP148"
"Doja Cat",42.30865,-83.48216,10000,"Streets","jJdlgKzVsnI","US","Canton",4987990,"US","USA126","USP148"
"Doja Cat",42.32652,-122.87559,10000,"Streets","jJdlgKzVsnI","US","Medford",5740099,"US","USA141","USP197"
"Doja Cat",42.36837,-83.35271,10000,"Streets","jJdlgKzVsnI","US","Livonia",4999837,"US","USA126","USP148"
"Doja Cat",42.41843,-71.10616,10000,"Streets","jJdlgKzVsnI","US","Medford",4943629,"US","USA125","USP102"
"Doja Cat",42.4251,-71.06616,10000,"Streets","jJdlgKzVsnI","US","Malden",4942939,"US","USA125","USP102"
"Doja Cat",42.58031,-83.0302,10000,"Streets","jJdlgKzVsnI","US","Sterling Heights",5011148,"US","USA126","USP148"
"Doja Cat",43.54072,-116.56346,10000,"Streets","jJdlgKzVsnI","US","Nampa",5601933,"US","USA116","USP183"
"Doja Cat",43.66147,-70.25533,10000,"Streets","jJdlgKzVsnI","US","Portland",4975802,"US","USA123","USP104"
"Doja Cat",44.02163,-92.4699,10000,"Streets","jJdlgKzVsnI","US","Rochester",5043473,"US","USA127","USP155"
"Doja Cat",44.05207,-123.08675,11300,"Streets","jJdlgKzVsnI","US","Eugene",5725846,"US","USA141","USP197"
"Doja Cat",44.47588,-73.21207,10000,"Streets","jJdlgKzVsnI","US","Burlington",5234372,"US","USA150","USP105"
"Doja Cat",44.73191,-93.21772,10000,"Streets","jJdlgKzVsnI","US","Apple Valley",5016494,"US","USA127","USP155"
"Doja Cat",44.80413,-93.16689,10000,"Streets","jJdlgKzVsnI","US","Eagan",5024825,"US","USA127","USP155"
"Doja Cat",44.8408,-93.29828,10000,"Streets","jJdlgKzVsnI","US","Bloomington",5018739,"US","USA127","USP155"
"Doja Cat",44.9429,-123.0351,18300,"Streets","jJdlgKzVsnI","US","Salem",5750162,"US","USA141","USP197"
"Doja Cat",45.1608,-93.23495,10000,"Streets","jJdlgKzVsnI","US","Blaine",5018651,"US","USA127","USP155"
"Doja Cat",45.48706,-122.80371,11100,"Streets","jJdlgKzVsnI","US","Beaverton",5713376,"US","USA141","USP197"
"Doja Cat",45.49818,-122.43148,10000,"Streets","jJdlgKzVsnI","US","Gresham",5729485,"US","USA141","USP197"
"Doja Cat",45.52289,-122.98983,10800,"Streets","jJdlgKzVsnI","US","Hillsboro",5731371,"US","USA141","USP197"
"Doja Cat",45.52345,-122.67621,89000,"Streets","jJdlgKzVsnI","US","Portland",5746545,"US","USA141","USP197"
"Doja Cat",45.63873,-122.66149,15500,"Streets","jJdlgKzVsnI","US","Vancouver",5814616,"US","USA153","USP198"
"Doja Cat",46.21125,-119.13723,10200,"Streets","jJdlgKzVsnI","US","Kennewick",5799610,"US","USA153","USP199"
"Doja Cat",46.23958,-119.10057,10800,"Streets","jJdlgKzVsnI","US","Pasco",5806298,"US","USA153","USP199"
"Doja Cat",46.60207,-120.5059,16800,"Streets","jJdlgKzVsnI","US","Yakima",5816605,"US","USA153","USP198"
"Doja Cat",47.03787,-122.9007,10000,"Streets","jJdlgKzVsnI","US","Olympia",5805687,"US","USA153","USP198"
"Doja Cat",47.25288,-122.44429,21700,"Streets","jJdlgKzVsnI","US","Tacoma",5812944,"US","USA153","USP198"
"Doja Cat",47.32232,-122.31262,10000,"Streets","jJdlgKzVsnI","US","Federal Way",5794245,"US","USA153","USP198"
"Doja Cat",47.38093,-122.23484,12400,"Streets","jJdlgKzVsnI","US","Kent",5799625,"US","USA153","USP198"
"Doja Cat",47.65966,-117.42908,13200,"Streets","jJdlgKzVsnI","US","Spokane",5811696,"US","USA153","USP199"
"Doja Cat",47.97898,-122.20208,10700,"Streets","jJdlgKzVsnI","US","Everett",5793933,"US","USA153","USP198"
"Doja Cat",48.75955,-122.48822,10000,"Streets","jJdlgKzVsnI","US","Bellingham",5786899,"US","USA153","USP198"
"Don Xhoni",41.79601,20.90819,25500,"Make a Pose (Freestyle)","gAUU5uXsFiI","MK","Gostivar",790295,"MK","MKA1006","MKP112"
"Don Xhoni",42.00973,20.97155,42900,"Make a Pose (Freestyle)","gAUU5uXsFiI","MK","Tetovo",785082,"MK","MKA1006","MKP112"
"Drake",43.5789,-79.6583,50400,"What’s Next","7EUVJaKJtBY","CA","Mississauga",6075357,"CA","CAA135","CAP1L5C"
"Drake",43.70011,-79.4163,300000,"What’s Next","7EUVJaKJtBY","CA","Toronto",6167865,"CA","CAA135","CAP1M5P"
"Drake",43.85012,-79.03288,10200,"What’s Next","7EUVJaKJtBY","CA","Ajax",5882873,"CA","CAA135","CAP1L1S"
"Drake",43.90012,-79.13289,10000,"What’s Next","7EUVJaKJtBY","CA","Pickering",6104111,"CA","CAA135","CAP1L1X"
"El Fantasma, Los Dos Carnales",37.77493,-122.41942,165000,"Cabrón y Vago","TsGuAJc9z38","US","San Francisco",5391959,"US","USA106","USP194"
"El Sawareekh",24.46861,39.61417,159000,"أخواتي","P66GgswsvCc","SA","Medina",109223,"SA","SAA103","SAP14"
"Elena Tsagkrinou",34.68406,33.03794,34100,"El Diablo","HRIvhTSUDnU","CY","Limassol",146384,"CY","CYA15","CYP130"
"Elena Tsagkrinou",34.92291,33.6233,15200,"El Diablo","HRIvhTSUDnU","CY","Larnaca",146400,"CY","CYA14","CYP160"
"Enes Batur",35.12054,33.93894,12100,"Ayaz","Tq60c_SaExc","CY","Famagusta",146617,"CY","CYA13","CYP150"
"Enes Batur",36.54375,31.99982,44800,"Ayaz","Tq60c_SaExc","TR","Alanya",324190,"TR","TRA107","TRP107"
"Enes Batur",36.58718,36.17347,124000,"Ayaz","Tq60c_SaExc","TR","İskenderun",311111,"TR","TRA131","TRP131"
"Enes Batur",36.64038,29.12758,41700,"Ayaz","Tq60c_SaExc","TR","Fethiye",314967,"TR","TRA148","TRP148"
"Enes Batur",36.90812,30.69556,796000,"Ayaz","Tq60c_SaExc","TR","Antalya",323777,"TR","TRA107","TRP107"
"Enes Batur",37.05944,37.3825,978000,"Ayaz","Tq60c_SaExc","TR","Gaziantep",314830,"TR","TRA127","TRP127"
"Enes Batur",37.07417,36.24778,107000,"Ayaz","Tq60c_SaExc","TR","Osmaniye",303195,"TR","TRA180","TRP180"
"Enes Batur",37.16708,38.79392,257000,"Ayaz","Tq60c_SaExc","TR","Şanlıurfa",298333,"TR","TRA163","TRP163"
"Enes Batur",37.18111,33.215,64500,"Ayaz","Tq60c_SaExc","TR","Karaman",309527,"TR","TRA170","TRP170"
"Enes Batur",37.21807,28.3665,32600,"Ayaz","Tq60c_SaExc","TR","Muğla",304184,"TR","TRA148","TRP148"
"Enes Batur",37.5847,36.92641,315000,"Ayaz","Tq60c_SaExc","TR","Kahramanmaraş",310859,"TR","TRA146","TRP146"
"Enes Batur",37.72028,30.29083,11200,"Ayaz","Tq60c_SaExc","TR","Burdur",320392,"TR","TRA115","TRP115"
"Enes Batur",37.76441,38.27629,96100,"Ayaz","Tq60c_SaExc","TR","Adıyaman",325330,"TR","TRA102","TRP102"
"Enes Batur",37.76444,30.55222,101000,"Ayaz","Tq60c_SaExc","TR","Isparta",311073,"TR","TRA132","TRP132"
"Enes Batur",37.77417,29.0875,253000,"Ayaz","Tq60c_SaExc","TR","Denizli",317109,"TR","TRA120","TRP120"
"Enes Batur",37.84501,27.83963,111000,"Ayaz","Tq60c_SaExc","TR","Aydın",322830,"TR","TRA109","TRP109"
"Enes Batur",37.87135,32.48464,1010000,"Ayaz","Tq60c_SaExc","TR","Konya",306571,"TR","TRA142","TRP142"
"Enes Batur",37.88738,41.13221,142000,"Ayaz","Tq60c_SaExc","TR","Batman",321836,"TR","TRA172","TRP172"
"Enes Batur",37.91363,40.21721,504000,"Ayaz","Tq60c_SaExc","TR","Diyarbakır",316541,"TR","TRA121","TRP121"
"Enes Batur",37.96583,34.67935,89700,"Ayaz","Tq60c_SaExc","TR","Niğde",303827,"TR","TRA151","TRP151"
"Enes Batur",38.35018,38.31667,266000,"Ayaz","Tq60c_SaExc","TR","Malatya",304922,"TR","TRA144","TRP144"
"Enes Batur",38.37255,34.02537,105000,"Ayaz","Tq60c_SaExc","TR","Aksaray",324496,"TR","TRA168","TRP168"
"Enes Batur",38.41273,27.13838,1820000,"Ayaz","Tq60c_SaExc","TR","İzmir",311046,"TR","TRA135","TRP135"
"Enes Batur",38.48258,28.14774,43600,"Ayaz","Tq60c_SaExc","TR","Salihli",302043,"TR","TRA145","TRP145"
"Enes Batur",38.49457,43.38323,278000,"Ayaz","Tq60c_SaExc","TR","Van",298117,"TR","TRA165","TRP165"
"Enes Batur",38.61202,27.42647,185000,"Ayaz","Tq60c_SaExc","TR","Manisa",304827,"TR","TRA145","TRP145"
"Enes Batur",38.625,34.71222,57700,"Ayaz","Tq60c_SaExc","TR","Nevşehir",303831,"TR","TRA150","TRP150"
"Enes Batur",38.67351,29.4058,87700,"Ayaz","Tq60c_SaExc","TR","Uşak",298299,"TR","TRA164","TRP164"
"Enes Batur",38.67431,39.22321,127000,"Ayaz","Tq60c_SaExc","TR","Elazığ",315808,"TR","TRA123","TRP123"
"Enes Batur",38.73222,35.48528,515000,"Ayaz","Tq60c_SaExc","TR","Kayseri",308464,"TR","TRA138","TRP138"
"Enes Batur",38.75667,30.54333,150000,"Ayaz","Tq60c_SaExc","TR","Afyonkarahisar",325303,"TR","TRA103","TRP103"
"Enes Batur",39.14583,34.16389,55100,"Ayaz","Tq60c_SaExc","TR","Kırşehir",307515,"TR","TRA140","TRP140"
"Enes Batur",39.42417,29.98333,97300,"Ayaz","Tq60c_SaExc","TR","Kütahya",305268,"TR","TRA143","TRP143"
"Enes Batur",39.64917,27.88611,179000,"Ayaz","Tq60c_SaExc","TR","Balıkesir",322165,"TR","TRA110","TRP110"
"Enes Batur",39.71944,43.05139,37000,"Ayaz","Tq60c_SaExc","TR","Ağrı",309647,"TR","TRA104","TRP104"
"Enes Batur",39.73919,39.49015,53600,"Ayaz","Tq60c_SaExc","TR","Erzincan",315373,"TR","TRA124","TRP124"
"Enes Batur",39.74833,37.01611,151000,"Ayaz","Tq60c_SaExc","TR","Sivas",300619,"TR","TRA158","TRP158"
"Enes Batur",39.77667,30.52056,240000,"Ayaz","Tq60c_SaExc","TR","Eskişehir",315202,"TR","TRA126","TRP126"
"Enes Batur",39.82,34.80444,38600,"Ayaz","Tq60c_SaExc","TR","Yozgat",296562,"TR","TRA166","TRP166"
"Enes Batur",39.84528,33.50639,71500,"Ayaz","Tq60c_SaExc","TR","Kırıkkale",307654,"TR","TRA171","TRP171"
"Enes Batur",39.90861,41.27694,170000,"Ayaz","Tq60c_SaExc","TR","Erzurum",315368,"TR","TRA125","TRP125"
"Enes Batur",39.91987,32.85427,2810000,"Ayaz","Tq60c_SaExc","TR","Ankara",323786,"TR","TRA106","TRP106"
"Enes Batur",40.14192,29.97932,28500,"Ayaz","Tq60c_SaExc","TR","Bilecik",750598,"TR","TRA111","TRP111"
"Enes Batur",40.31389,36.55444,76200,"Ayaz","Tq60c_SaExc","TR","Tokat",738743,"TR","TRA160","TRP160"
"Enes Batur",40.35222,27.97667,39200,"Ayaz","Tq60c_SaExc","TR","Bandırma",751077,"TR","TRA110","TRP110"
"Enes Batur",40.59825,43.08548,38800,"Ayaz","Tq60c_SaExc","TR","Kars",743952,"TR","TRA136","TRP136"
"Enes Batur",40.65333,35.83306,49800,"Ayaz","Tq60c_SaExc","TR","Amasya",752015,"TR","TRA105","TRP105"
"Enes Batur",40.65501,29.27693,52900,"Ayaz","Tq60c_SaExc","TR","Yalova",738025,"TR","TRA177","TRP177"
"Enes Batur",40.73583,31.60611,69600,"Ayaz","Tq60c_SaExc","TR","Bolu",750516,"TR","TRA114","TRP114"
"Enes Batur",40.97782,37.89047,139000,"Ayaz","Tq60c_SaExc","TR","Ordu",741100,"TR","TRA152","TRP152"
"Enes Batur",40.9781,27.51101,123000,"Ayaz","Tq60c_SaExc","TR","Tekirdağ",738927,"TR","TRA159","TRP159"
"Enes Batur",41.005,39.72694,149000,"Ayaz","Tq60c_SaExc","TR","Trabzon",738648,"TR","TRA161","TRP161"
"Enes Batur",41.02083,40.52194,72400,"Ayaz","Tq60c_SaExc","TR","Rize",740483,"TR","TRA153","TRP153"
"Enes Batur",41.27976,36.3361,305000,"Ayaz","Tq60c_SaExc","TR","Samsun",740264,"TR","TRA155","TRP155"
"Enes Batur",41.37805,33.77528,58800,"Ayaz","Tq60c_SaExc","TR","Kastamonu",743882,"TR","TRA137","TRP137"
"Enes Batur",41.40385,27.35918,44200,"Ayaz","Tq60c_SaExc","TR","Lüleburgaz",741855,"TR","TRA139","TRP139"
"Enes Batur",41.45139,31.79305,94800,"Ayaz","Tq60c_SaExc","TR","Zonguldak",737022,"TR","TRA167","TRP167"
"Enima",45.30713,-73.26259,10700,"Moi","uyx2DaQZ6V8","CA","Saint-Jean-sur-Richelieu",6138495,"CA","CAA124","CAP1J3B"
"Enima",45.38338,-73.74919,10000,"Moi","uyx2DaQZ6V8","CA","Châteauguay",5920433,"CA","CAA124","CAP1J6J"
"Enima",45.40008,-71.89908,14000,"Moi","uyx2DaQZ6V8","CA","Sherbrooke",6146143,"CA","CAA124","CAP1J1H"
"Enima",45.40008,-72.73243,10000,"Moi","uyx2DaQZ6V8","CA","Granby",5964215,"CA","CAA124","CAP1J2G"
"Enima",45.50884,-73.58781,321000,"Moi","uyx2DaQZ6V8","CA","Montréal",6077243,"CA","CAA124","CAP1H3H"
"Enima",45.53121,-73.51806,25200,"Moi","uyx2DaQZ6V8","CA","Longueuil",6059891,"CA","CAA124","CAP1J4H"
"Enima",45.565,-73.90554,10000,"Moi","uyx2DaQZ6V8","CA","Saint-Eustache",6138175,"CA","CAA124","CAP1J7R"
"Enima",45.56995,-73.692,41000,"Moi","uyx2DaQZ6V8","CA","Laval",6050610,"CA","CAA124","CAP1H7N"
"Enima",45.63076,-72.95699,10000,"Moi","uyx2DaQZ6V8","CA","Saint-Hyacinthe",6138374,"CA","CAA124","CAP1J2S"
"Enima",45.66678,-73.88249,10000,"Moi","uyx2DaQZ6V8","CA","Blainville",5903510,"CA","CAA124","CAP1J7C"
"Enima",45.70004,-73.64732,13000,"Moi","uyx2DaQZ6V8","CA","Terrebonne",6163012,"CA","CAA124","CAP1J6W"
"Enima",45.74222,-73.45008,10000,"Moi","uyx2DaQZ6V8","CA","Repentigny",6119518,"CA","CAA124","CAP1J6A"
"Enima",45.78036,-74.00365,10000,"Moi","uyx2DaQZ6V8","CA","Saint-Jérôme",6138501,"CA","CAA124","CAP1J7Z"
"Enima",46.34515,-72.5477,17500,"Moi","uyx2DaQZ6V8","CA","Trois-Rivières",6169141,"CA","CAA124","CAP1G9A"
"Explosión De Iquitos",-3.74912,-73.25383,126000,"No Sé","wlktINgxH6Y","PE","Iquitos",3696183,"PE","PEA116","PEP116"
"F.HERO",13.59934,100.59675,12200,"จำเลยรัก [Defendant Of Love]","PSEcZas-QZg","TH","Samut Prakan",1606590,"TH","THA111","THP110"
"F.HERO",13.91301,100.49883,47700,"จำเลยรัก [Defendant Of Love]","PSEcZas-QZg","TH","Pak Kret",1608048,"TH","THA112","THP111"
"Fadel Chaker",29.33278,48.02861,24900,"إبقى قابلني","mJlZT7iQjLg","KW","Ḩawallī",285629,"KW","KWA102","KWP130"
"Fadel Chaker",29.36972,47.97833,169000,"إبقى قابلني","mJlZT7iQjLg","KW","Kuwait City",285787,"KW","KWA101","KWP114"
"Fally Ipupa",0.39241,9.45356,261000,"Un coup","G0mM2XdjmHo","GA","Libreville",2399697,"GA","GAA11",""
"Fally Ipupa",3.86667,11.51667,236000,"Un coup","G0mM2XdjmHo","CM","Yaoundé",2220957,"CM","CMA102",""
"Fally Ipupa",4.04827,9.70428,271000,"Un coup","G0mM2XdjmHo","CM","Douala",2232593,"CM","CMA105",""
"Fior 2 Bior, Niska",5.30966,-4.01266,1780000,"Gnonmi avec lait","TQtwXWk3gJQ","CI","Abidjan",2293538,"CI","CIA109",""
"Francesca Michielin, Fedez",33.99084,-118.46008,29400,"CHIAMAMI PER NOME","F92zPP2FbwE","US","Venice",5405841,"US","USA106","USP190"
"Francesca Michielin, Fedez",38.19394,15.55256,43500,"CHIAMAMI PER NOME","F92zPP2FbwE","IT","Messina",2524170,"IT","ITA119","ITP198"
"Francesca Michielin, Fedez",39.22935,9.25004,10000,"CHIAMAMI PER NOME","F92zPP2FbwE","IT","Quartu Sant'Elena",2523665,"IT","ITA120","ITP109"
"Francesca Michielin, Fedez",39.23054,9.11917,124000,"CHIAMAMI PER NOME","F92zPP2FbwE","IT","Cagliari",2525473,"IT","ITA120","ITP109"
"Francesca Michielin, Fedez",40.72586,8.55552,13900,"CHIAMAMI PER NOME","F92zPP2FbwE","IT","Sassari",3167096,"IT","ITA120","ITP107"
"Francesca Michielin, Fedez",41.46614,12.9043,10000,"CHIAMAMI PER NOME","F92zPP2FbwE","IT","Latina",3175058,"IT","ITA112","ITP104"
"Francesca Michielin, Fedez",42.34827,14.16494,10500,"CHIAMAMI PER NOME","F92zPP2FbwE","IT","Chieti",3178796,"IT","ITA113","ITP166"
"Francesca Michielin, Fedez",42.56335,12.64329,11500,"CHIAMAMI PER NOME","F92zPP2FbwE","IT","Terni",3165771,"IT","ITA110","ITP105"
"Francesca Michielin, Fedez",43.1122,12.38878,17200,"CHIAMAMI PER NOME","F92zPP2FbwE","IT","Perugia",3171180,"IT","ITA110","ITP106"
"Francesca Michielin, Fedez",43.31822,11.33064,11800,"CHIAMAMI PER NOME","F92zPP2FbwE","IT","Siena",3166548,"IT","ITA109","ITP153"
"Francesca Michielin, Fedez",43.5942,13.50337,41500,"CHIAMAMI PER NOME","F92zPP2FbwE","IT","Ancona",3183089,"IT","ITA111","ITP160"
"Francesca Michielin, Fedez",43.70853,10.4036,15200,"CHIAMAMI PER NOME","F92zPP2FbwE","IT","Pisa",3170647,"IT","ITA109","ITP156"
"Francesca Michielin, Fedez",43.77925,11.24626,214000,"CHIAMAMI PER NOME","F92zPP2FbwE","IT","Florence",3176959,"IT","ITA109","ITP150"
"Francesca Michielin, Fedez",43.84369,10.50447,15600,"CHIAMAMI PER NOME","F92zPP2FbwE","IT","Lucca",3174530,"IT","ITA109","ITP155"
"Francesca Michielin, Fedez",43.8805,11.09699,23800,"CHIAMAMI PER NOME","F92zPP2FbwE","IT","Prato",3169921,"IT","ITA109","ITP159"
"Francesca Michielin, Fedez",44.05755,12.56528,37400,"CHIAMAMI PER NOME","F92zPP2FbwE","IT","Rimini",3169361,"IT","ITA108","ITP147"
"Francesca Michielin, Fedez",44.1391,12.24315,15700,"CHIAMAMI PER NOME","F92zPP2FbwE","IT","Cesena",3178957,"IT","ITA108","ITP147"
"Francesca Michielin, Fedez",44.22177,12.04144,14000,"CHIAMAMI PER NOME","F92zPP2FbwE","IT","Forlì",3176746,"IT","ITA108","ITP147"
"Francesca Michielin, Fedez",44.40478,8.94439,127000,"CHIAMAMI PER NOME","F92zPP2FbwE","IT","Genoa",3176219,"IT","ITA107","ITP116"
"Francesca Michielin, Fedez",44.41344,12.20121,12100,"CHIAMAMI PER NOME","F92zPP2FbwE","IT","Ravenna",3169561,"IT","ITA108","ITP148"
"Francesca Michielin, Fedez",44.49381,11.33875,182000,"CHIAMAMI PER NOME","F92zPP2FbwE","IT","Bologna",3181928,"IT","ITA108","ITP140"
"Francesca Michielin, Fedez",44.64783,10.92539,26200,"CHIAMAMI PER NOME","F92zPP2FbwE","IT","Modena",3173331,"IT","ITA108","ITP141"
"Francesca Michielin, Fedez",44.69825,10.63125,22700,"CHIAMAMI PER NOME","F92zPP2FbwE","IT","Reggio nell'Emilia",3169522,"IT","ITA108","ITP142"
"Francesca Michielin, Fedez",44.79935,10.32618,30300,"CHIAMAMI PER NOME","F92zPP2FbwE","IT","Parma",3171457,"IT","ITA108","ITP143"
