"max_views","country_name","geonameid","artist_name","views","artist_link","track_name","track_link","location_id","rank","date_range","google_place_id","latitude","longitude","formatted_address","country_name","iso","views_formatted"
199000,"Afghanistan",NULL,"Ashkan Arab","199K","","Bordi Dele Man (بردی دل من)","V2JYYJYL4qw","0x38d16eb6f8ff026d:0xf3b5460dbe96da78",0,20210601,"None",33.93911,67.709953,"Afghanistan","Afghanistan","AF",199000
2860000,"Albania",NULL,"Melisa","2.86M","","Leje","oT8amicWUBA","0x13453bf3bd274c2d:0x77ce589d6983bee",0,20210601,"None",41.153332,20.168331,"Albania","Albania","AL",2860000
26800,"Andorra",NULL,"Sebastián Yatra, Myke Towers","26.8K","","Pareja Del Año","SRm2Ch4oFWs","0x12a5f52e989ef095:0x7c93ed778ea7f92",0,20210601,"None",42.506285,1.521801,"Andorra","Andorra","AD",26800
309000,"Angola",NULL,"Calema, Soraia Ramos, Perola, Manecas Costa","309K","","Kua Buaru","uo7qogkvRzI","0x1a51f24ecaad8b27:0x590a289d0d4a4e3d",0,20210601,"None",-11.202692,17.873887,"Angola","Angola","AO",309000
10000,"Anguilla",NULL,"Skillibeng","10K","","Crocodile Teeth","rMWdX1_cEXg","0x8c0e63748eef01e5:0x3b9d6ad384e0d481",0,20210601,"None",18.220554,-63.068615,"Anguilla","Anguilla","AI",10000
42500,"Antigua and Barbuda",NULL,"Skillibeng","42.5K","","Crocodile Teeth","rMWdX1_cEXg","0x8c0d6eb96db8d1c1:0x276a3788e18b7994",0,20210601,"None",17.060816,-61.796428,"Antigua and Barbuda","Antigua and Barbuda","AG",42500
44900000,"Argentina",NULL,"TINI, Maria Becerra","44.9M","","Miénteme","mmRBXjVENDQ","0x95bccaf5f5fdc667:0x3d2f77992af00fa8",0,20210601,"None",-38.416097,-63.616672,"Argentina","Argentina","AR",44900000
1520000,"Armenia",NULL,"Sona Rubenyan, Aram Mp3","1.52M","","Siro Nver","2kOcZ0SjSFg","0x40155684e773bac7:0xd0b4757aeb822d23",0,20210601,"None",40.069099,45.038189,"Armenia","Armenia","AM",1520000
35500,"Aruba",NULL,"Karol G, Mariah Angeliq","35.5K","","EL MAKINON","2jYEz66J_J4","0x8e8538cfe25a77db:0xf16a8a3e89818c2f",0,20210601,"None",12.52111,-69.968338,"Aruba","Aruba","AW",35500
2520000,"Australia",NULL,"Tion Wayne, Russ","2.52M","","Body (Remix) (feat. ArrDee, E1 (3x3), ZT (3x3), Bugzy Malone, Buni, Fivio Foreign & Darkoo)","BS3HgiHPYcs","0x2b2bfd076787c5df:0x538267a1955b1352",0,20210601,"None",-25.274398,133.775136,"Australia","Australia","AU",2520000
1080000,"Austria",NULL,"Nathan Evans","1.08M","","Wellerman (Sea Shanty)","RSx1xWn0RJ0","0x476d079b259d2a7f:0x1012d47bdde4c1af",0,20210601,"None",47.516231,14.550072,"Austria","Austria","AT",1080000
4770000,"Azerbaijan",NULL,"Vefa Serifova","4.77M","","Arkadas (feat. Nefes)","4FC-hdPYAEs","0x40307cd91aa21ddf:0xe6c9526b3e83cd08",0,20210601,"None",40.143105,47.576927,"Azerbaijan","Azerbaijan","AZ",4770000
139000,"Bahamas, The",NULL,"Skillibeng","139K","","Crocodile Teeth","rMWdX1_cEXg","0x88d69a3bb2480f3d:0x133eb4836ac779e5",0,20210601,"None",25.03428,-77.39628,"The Bahamas","Bahamas, The","BS",139000
247000,"Bahrain",NULL,"BTS","247K","","Butter","WMweEpGlu_U","0x3e48524e6a47a211:0x2e9450e2dbda1046",0,20210601,"None",26.0667,50.5577,"Bahrain","Bahrain","BH",247000
22100000,"Bangladesh",NULL,"Jubin Nautiyal","22.1M","","Lut Gaye (feat. Emraan Hashmi)","sCbbMZ-q4-I","0x30adaaed80e18ba7:0xf2d28e0c4e1fc6b",0,20210601,"None",23.684994,90.356331,"Bangladesh","Bangladesh","BD",22100000
95100,"Barbados",NULL,"Skillibeng","95.1K","","Crocodile Teeth","rMWdX1_cEXg","0x8c43f1fbae321aa3:0xeec51b38cf4362b",0,20210601,"None",13.193887,-59.543198,"Barbados","Barbados","BB",95100
1940000,"Belarus",NULL,"Khabib","1.94M","","Ягода малинка","Rt2zZSaOFtw","0x46da2584e2ad4881:0xa1d181ec8c10",0,20210601,"None",53.709807,27.953389,"Belarus","Belarus","BY",1940000
169000,"Belize",NULL,"Gera Mx, Christian Nodal","169K","","Botella Tras Botella","XegHMc35Bo8","0x8f5c5b3ec112faf9:0xf64a8a4d3f1ee34e",0,20210601,"None",17.189877,-88.49765,"Belize","Belize","BZ",169000
13000,"Bermuda",NULL,"DJ Khaled","13K","","EVERY CHANCE I GET (feat. Lil Baby & Lil Durk)","BTivsHlVcGU","0x8a2d139e8668b0a5:0x3cdffdc72c99b8bc",0,20210601,"None",32.3078,-64.7505,"Bermuda","Bermuda","BM",13000
7280000,"Bolivia",NULL,"Sebastián Yatra, Myke Towers","7.28M","","Pareja Del Año","SRm2Ch4oFWs","0x915edf8977bba295:0x1c9ec2bb0115edbf",0,20210601,"None",-16.290154,-63.588653,"Bolivia","Bolivia","BO",7280000
1330000,"Bosnia and Herzegovina",NULL,"Voyage (French Band), J Fado","1.33M","","Plesi","9d7TDm6hvlE","0x134ba215c737a9d7:0x6df7e20343b7e90c",0,20210601,"None",43.915886,17.679076,"Bosnia and Herzegovina","Bosnia and Herzegovina","BA",1330000
135000000,"Brazil",NULL,"Dj Guuga, DJ Ivis","135M","","Volta Bebê, Volta Neném","x0EPgyNd9o0","0x9c59c7ebcc28cf:0x295a1506f2293e63",0,20210601,"None",-14.235004,-51.92528,"Brazil","Brazil","BR",135000000
159000,"Brunei",NULL,"Iman Troye","159K","","Pejam Celik Hari Raya","k5RawzRXeVE","0x3218994b04b8b9d1:0x5dfe3580dd09dad6",0,20210601,"None",4.535277,114.727669,"Brunei","Brunei","BN",159000
4580000,"Bulgaria",NULL,"Medi","4.58M","","Scandal","tSG4clX8pIc","0x40a8fec1c85bf089:0xa01269bf4c10",0,20210601,"None",42.733883,25.48583,"Bulgaria","Bulgaria","BG",4580000
192000,"Burkina Faso",NULL,"AMZY","192K","","ZinZin","9CHSMylQYdw","0xe2dca26d5a6709b:0x27930aed46836dab",0,20210601,"None",12.238333,-1.561593,"Burkina Faso","Burkina Faso","BF",192000
8870000,"Cambodia",NULL,"VannDa-វណ្ណដា, --","8.87M","","Time To Rise","rvje5oblrLw","0x310787bfd4dc3743:0xe4b7bfe089f41253",0,20210601,"None",12.565679,104.990963,"Cambodia","Cambodia","KH",8870000
539000,"Cameroon",NULL,"Chidinma","539K","","Jehovah Overdo","jgcXR4U4kEc","0x10613753703e0f21:0x2b03c44599829b53",0,20210601,"None",7.369722,12.354722,"Cameroon","Cameroon","CM",539000
4350000,"Canada",NULL,"BTS","4.35M","","Butter","WMweEpGlu_U","0x4b0d03d337cc6ad9:0x9968b72aa2438fa5",0,20210601,"None",56.130366,-106.346771,"Canada","Canada","CA",4350000
103000,"Cape Verde",NULL,"Calema, Soraia Ramos, Perola, Manecas Costa","103K","","Kua Buaru","uo7qogkvRzI","0x9358f2159115131:0x6b1af236f918ea1f",0,20210601,"None",16.5388,-23.0418,"Cape Verde","Cape Verde","CV",103000
17600,"Cayman Islands",NULL,"Spice","17.6K","","Go Down Deh (feat. Shaggy & Sean Paul)","lZizLbWxr_E","0x8f25863e2fb8aa29:0x7045c4d38770715e",0,20210601,"None",19.3133,-81.2546,"Cayman Islands","Cayman Islands","KY",17600
20700000,"Colombia",NULL,"Karol G, Mariah Angeliq","20.7M","","EL MAKINON","2jYEz66J_J4","0x8e15a43aae1594a3:0x9a0d9a04eff2a340",0,20210601,"None",4.570868,-74.297333,"Colombia","Colombia","CO",20700000
353000,"Congo, Democratic Republic of the",NULL,"Fally Ipupa","353K","","Amore","T37nO9uJNp0","0x1979facf9a7546bd:0x4c63e5eac93f141",0,20210601,"None",-4.038333,21.758664,"Democratic Republic of the Congo","Congo, Democratic Republic of the","CD",353000
2370000,"Costa Rica",NULL,"Gera Mx, Christian Nodal","2.37M","","Botella Tras Botella","XegHMc35Bo8","0x8f92e56221acc925:0x6254f72535819a2b",0,20210601,"None",9.748917,-83.753428,"Costa Rica","Costa Rica","CR",2370000
1560000,"Cote d'Ivoire",NULL,"Ks bloom","1.56M","","Enfant de Dieu","GlfKkDHKMQg","0xf961387b049a067:0x1f91e627cb9ee40",0,20210601,"None",7.539989,-5.54708,"Côte d'Ivoire","Cote d'Ivoire","CI",1560000
1070000,"Croatia",NULL,"Voyage (French Band), J Fado","1.07M","","Plesi","9d7TDm6hvlE","0x133441080add95ed:0xa0f3c024e1661b7f",0,20210601,"None",45.1,15.2000001,"Croatia","Croatia","HR",1070000
71700,"Curacao",NULL,"2sync","71.7K","","Nos ta drai (feat. Farly & Nello)","rzdLJ8MJrtE","0x8e849dbe62c7fdc7:0xfc7f9228dbc64723",0,20210601,"None",12.16957,-68.99002,"Curaçao","Curacao","CW",71700
195000,"Cyprus",NULL,"Uzi","195K","","Krvn","8OQMEeOXGWI","0x14de1767ca494d55:0x324c3c807fc4146e",0,20210601,"None",35.126413,33.429859,"Cyprus","Cyprus","CY",195000
841000,"Czech Republic",NULL,"Ewa Farna","841K","","Ciało","vvCnsBpFgLc","0x470b948fd7dd8243:0xf8661c75d3db586f",0,20210601,"None",49.817492,15.472962,"Czechia","Czech Republic","CZ",841000
607000,"Denmark",NULL,"Popsi og Krelle","607K","","Tommelfinger, Tommelfinger, Hvor Er Du","GBTmiHOQBDQ","0x464b27b6ee945ffb:0x528743d0c3e092cd",0,20210601,"None",56.26392,9.501785,"Denmark","Denmark","DK",607000
22700,"Dominica",NULL,"Skillibeng","22.7K","","Crocodile Teeth","rMWdX1_cEXg","0x8c14d2faf2155a15:0x49b39109053afd3c",0,20210601,"None",15.414999,-61.370976,"Dominica","Dominica","DM",22700
13900000,"Ecuador",NULL,"Sebastián Yatra, Myke Towers","13.9M","","Pareja Del Año","SRm2Ch4oFWs","0x902387dda89a4bd5:0x9d76af04119c3702",0,20210601,"None",-1.831239,-78.183406,"Ecuador","Ecuador","EC",13900000
3190000,"El Salvador",NULL,"Gera Mx, Christian Nodal","3.19M","","Botella Tras Botella","XegHMc35Bo8","0x8f6327a659640657:0x6f9a16eb98854832",0,20210601,"None",13.794185,-88.89653,"El Salvador","El Salvador","SV",3190000
150000,"Estonia",NULL,"Smilers","150K","","Tee mis sa tahad","MkMU6eGzEa8","0x4692949c82a04bfd:0x40ea9fba4fb425c3",0,20210601,"None",58.595272,25.0136071,"Estonia","Estonia","EE",150000
858000,"Ethiopia",NULL,"Sayat Demissie","858K","","የሀገር ካስማ (Yehager Kasma)","uSaDZhB5Csw","0x1635d0cedd6cfd2b:0x7bf6a67f5348c55a",0,20210601,"None",9.145,40.489673,"Ethiopia","Ethiopia","ET",858000
10000,"Faroe Islands",NULL,"Tion Wayne, Russ","10K","","Body (Remix) (feat. ArrDee, E1 (3x3), ZT (3x3), Bugzy Malone, Buni, Fivio Foreign & Darkoo)","BS3HgiHPYcs","0x48bc1593762df9eb:0x3fb0314864f71b24",0,20210601,"None",61.892635,-6.9118061,"Faroe Islands","Faroe Islands","FO",10000
144000,"Fiji",NULL,"Savu Ni Delai Lomai, Voqa Kei Valenisau","144K","","Veidomoni Qo E Yavalati Au","VfxdxOp7yW0","0x6e1990fd703cdc5d:0x9e9c319946ef5b93",0,20210601,"None",-17.713371,178.065032,"Fiji","Fiji","FJ",144000
877000,"Finland",NULL,"Blind Channel","877K","","Dark Side (Live)","fOPGxQ4fgVw","0x4681cadf4b32f6dd:0x146d63c75a810",0,20210601,"None",61.92411,25.7481511,"Finland","Finland","FI",877000
57800,"French Polynesia",NULL,"Kalipsxau","57.8K","","Corps à corps","l8aV0A7h8EM","0x741875d07c6dd74d:0x9bc07a7a09c35711",0,20210601,"None",-17.679742,-149.406843,"French Polynesia","French Polynesia","PF",57800
207000,"Gabon",NULL,"Ks bloom","207K","","Enfant de Dieu","GlfKkDHKMQg","0x107f3b8a5438f3ed:0x7b0cc30e36786b15",0,20210601,"None",-0.803689,11.609444,"Gabon","Gabon","GA",207000
1300000,"Georgia",NULL,"Султан Лагучев","1.3M","","Горький вкус","Bx8Fo7WRpXg","0x40440cd7e64f626b:0x4f907964122d4ac2",0,20210601,"None",42.315407,43.356892,"Georgia","Georgia","GE",1300000
6770000,"Germany",NULL,"Nathan Evans","6.77M","","Wellerman (Sea Shanty)","RSx1xWn0RJ0","0x479a721ec2b1be6b:0x75e85d6b8e91e55b",0,20210601,"None",51.165691,10.451526,"Germany","Germany","DE",6770000
683000,"Ghana",NULL,"Kuami Eugene","683K","","Dollar On You","QQlUzS00dVg","0xfd75acda8dad6c7:0x54d7f230d093d236",0,20210601,"None",7.946527,-1.023194,"Ghana","Ghana","GH",683000
10000,"Gibraltar",NULL,"Tion Wayne, Russ","10K","","Body (Remix) (feat. ArrDee, E1 (3x3), ZT (3x3), Bugzy Malone, Buni, Fivio Foreign & Darkoo)","BS3HgiHPYcs","0xd0cbf762714be35:0x384e25263600870f",0,20210601,"None",36.140751,-5.353585,"Gibraltar","Gibraltar","GI",10000
4800000,"Greece",NULL,"Light, Eleni Foureira, Skive","4.8M","","Mporei","4DdPBhB2BOQ","0x135b4ac711716c63:0x363a1775dc9a2d1d",0,20210601,"None",39.074208,21.824312,"Greece","Greece","GR",4800000
47300,"Grenada",NULL,"Skillibeng","47.3K","","Crocodile Teeth","rMWdX1_cEXg","0x8c381789f4877bd1:0x36d8c7015a1f4f8e",0,20210601,"None",12.1165,-61.679,"Grenada","Grenada","GD",47300
90400,"Guam",NULL,"Bruno Mars, Anderson .Paak, Silk Sonic","90.4K","","Leave The Door Open","adLGHcj_fmA","0x671f76ff930f24ef:0x5571ae91c5b3e5a6",0,20210601,"None",13.444304,144.793731,"Guam","Guam","GU",90400
5990000,"Guatemala",NULL,"Gera Mx, Christian Nodal","5.99M","","Botella Tras Botella","XegHMc35Bo8","0x8588135036e7506b:0x35982b375b84d5bb",0,20210601,"None",15.783471,-90.230759,"Guatemala","Guatemala","GT",5990000
10300,"Guernsey",NULL,"Tion Wayne, Russ","10.3K","","Body (Remix) (feat. ArrDee, E1 (3x3), ZT (3x3), Bugzy Malone, Buni, Fivio Foreign & Darkoo)","BS3HgiHPYcs","0x480d20e4f4bfb3ed:0x990ad58a5d0d9899",0,20210601,"None",49.465691,-2.585278,"Guernsey","Guernsey","GG",10300
77500,"Guinea",NULL,"Straïker","77.5K","","poullosophe","Ww5lZvztkS4","0xf01b321bcce953f:0xe8737bcbd75a2df6",0,20210601,"None",9.945587,-9.696645,"Guinea","Guinea","GN",77500
166000,"Guyana",NULL,"Spice","166K","","Go Down Deh (feat. Shaggy & Sean Paul)","lZizLbWxr_E","0x8dafefaf60d8c2b3:0x48e38867b6e54440",0,20210601,"None",4.860416,-58.93018,"Guyana","Guyana","GY",166000
2080000,"Haiti",NULL,"K-Dilak, Bedjine","2.08M","","Engra","dQAiajg-B60","0x8eb6c6f37fcbbb11:0xb51438b24c54f6d3",0,20210601,"None",18.971187,-72.285215,"Haiti","Haiti","HT",2080000
3460000,"Honduras",NULL,"Gera Mx, Christian Nodal","3.46M","","Botella Tras Botella","XegHMc35Bo8","0x8f6a751a73b731cf:0x7ed1de82b6fb8264",0,20210601,"None",15.199999,-86.241905,"Honduras","Honduras","HN",3460000
1580000,"Hong Kong",NULL,"BTS","1.58M","","Butter","WMweEpGlu_U","0x3403e2eda332980f:0xf08ab3badbeac97c",0,20210601,"None",22.396428,114.109497,"Hong Kong","Hong Kong","HK",1580000
2290000,"Hungary",NULL,"BSW","2.29M","","Mokambo Gang (feat. T. Danny)","xxYb4ZuUy8g","0x4741837bdf37e4c3:0xc4290c1e1010",0,20210601,"None",47.162494,19.5033041,"Hungary","Hungary","HU",2290000
184000,"Iceland",NULL,"Daði Freyr","184K","","10 Years (Live)","jaTRNImqnHM","0x48d22b52a3eb6043:0x6f8a0434e5c1459a",0,20210601,"None",64.963051,-19.020835,"Iceland","Iceland","IS",184000
234000000,"India",NULL,"Jubin Nautiyal","234M","","Lut Gaye (feat. Emraan Hashmi)","sCbbMZ-q4-I","0x30635ff06b92b791:0xd78c4fa1854213a6",0,20210601,"None",20.593684,78.96288,"India","India","IN",234000000
36400000,"Indonesia",NULL,"BTS","36.4M","","Butter","WMweEpGlu_U","0x2c4c07d7496404b7:0xe37b4de71badf485",0,20210601,"None",-0.789275,113.921327,"Indonesia","Indonesia","ID",36400000
278000,"Iran",NULL,"BTS","278K","","Butter","WMweEpGlu_U","0x3ef7ec2ec16b1df1:0x40b095d39e51face",0,20210601,"None",32.427908,53.688046,"Iran","Iran","IR",278000
16400,"Isle of Man",NULL,"Tion Wayne, Russ","16.4K","","Body (Remix) (feat. ArrDee, E1 (3x3), ZT (3x3), Bugzy Malone, Buni, Fivio Foreign & Darkoo)","BS3HgiHPYcs","0x48638530442e81d5:0xea025bbcf1f0e00d",0,20210601,"None",54.236107,-4.548056,"Isle of Man","Isle of Man","IM",16400
6530000,"Israel",NULL,"Eden Ben Zaken, Itay Galo","6.53M","","מועבט (Moabet)","yoIeg9B8EEg","0x1500492432a7c98b:0x6a6b422013352cba",0,20210601,"None",31.046051,34.851612,"Israel","Israel","IL",6530000
27700000,"Italy",NULL,"Sangiovanni","27.7M","","malibu","0lvCoQuHuBQ","0x12d4fe82448dd203:0xe22cf55c24635e6f",0,20210601,"None",41.87194,12.56738,"Italy","Italy","IT",27700000
1830000,"Jamaica",NULL,"Spice","1.83M","","Go Down Deh (feat. Shaggy & Sean Paul)","lZizLbWxr_E","0x8eda2a1bc6cf719d:0x59a0d1c0b5120efa",0,20210601,"None",18.109581,-77.297508,"Jamaica","Jamaica","JM",1830000
56000000,"Japan",NULL,"BTS","56M","","Butter","WMweEpGlu_U","0x34674e0fd77f192f:0xf54275d47c665244",0,20210601,"None",36.204824,138.252924,"Japan","Japan","JP",56000000
19700,"Jersey",NULL,"Tion Wayne, Russ","19.7K","","Body (Remix) (feat. ArrDee, E1 (3x3), ZT (3x3), Bugzy Malone, Buni, Fivio Foreign & Darkoo)","BS3HgiHPYcs","0x480c52a48c927533:0x519c23a30a1a6cc3",0,20210601,"None",49.214439,-2.13125,"Jersey","Jersey","JE",19700
2690000,"Jordan",NULL,"Ruby","2.69M","","حته تانيه (Hetta Tanya)","gbt6cTZSKgo","0x15006f476664de99:0x8d285b0751264e99",0,20210601,"None",30.585164,36.238414,"Jordan","Jordan","JO",2690000
8100000,"Kazakhstan",NULL,"RaiM","8.1M","","Oh My Love","hAOpcD1FBJg","0x38a91007ecfca947:0x5f7b842fe4b30e1b",0,20210601,"None",48.019573,66.923684,"Kazakhstan","Kazakhstan","KZ",8100000
3810000,"Kenya",NULL,"Zuchu","3.81M","","Sukari","CCmItvVgn6Q","0x182780d08350900f:0x403b0eb0a1976dd9",0,20210601,"None",-0.023559,37.906193,"Kenya","Kenya","KE",3810000
32200000,"Korea, South",NULL,"BTS","32.2M","","Butter","WMweEpGlu_U","0x356455ebcb11ba9b:0x91249b00ba88db4b",0,20210601,"None",35.907757,127.766922,"South Korea","Korea, South","KR",32200000
10000,"Kosovo",NULL,"Gonee","10K","","Faj Faj","9gCfxA5Eb7c","0x13537af354bf7df1:0xbfffeedfabc31791",0,20210601,"None",42.6026359,20.902977,"Kosovo","Kosovo","XK",10000
1050000,"Kuwait",NULL,"Rawan","1.05M","","Kan Ya Ma Kan","CugJC4lutiU","0x3fc5363fbeea51a1:0x74726bcd92d8edd2",0,20210601,"None",29.31166,47.481766,"Kuwait","Kuwait","KW",1050000
1710000,"Kyrgyzstan",NULL,"Erlan Andashev","1.71M","","Уяласың го","ZVV9gaJvRwM","0x3897381dfce927f3:0x281058b74e88c433",0,20210601,"None",41.20438,74.766098,"Kyrgyzstan","Kyrgyzstan","KG",1710000
7870000,"Laos",NULL,"Sprite, GUYGEEGEE","7.87M","","ทน","wNO6kMJB63I","0x31149057b0824589:0xec592481f99cd81",0,20210601,"None",19.85627,102.495496,"Laos","Laos","LA",7870000
257000,"Latvia",NULL,"Khabib","257K","","Ягода малинка","Rt2zZSaOFtw","0x46e930677b8a9afd:0xcfcd68f2fc10",0,20210601,"None",56.879635,24.603189,"Latvia","Latvia","LV",257000
1630000,"Lebanon",NULL,"Mohanad Zaiter","1.63M","","تريند الأول (Trend Al Awal)","z6FWCL_ryZE","0x151f17028422aaad:0xcc7d34096c00f970",0,20210601,"None",33.854721,35.862285,"Lebanon","Lebanon","LB",1630000
1510000,"Libya",NULL,"Redstar","1.51M","","Ech Mazel (Khrafa)","JrlOvPCVp-E","0x13a892d98ece010d:0xfa076041c7f9c22a",0,20210601,"None",26.3351,17.228331,"Libya","Libya","LY",1510000
3240000,"Lithuania",NULL,"Minelli","3.24M","","Rampampam","XqgYj8atJqo","0x46dd94140f33be13:0xf30a54d3a55dbab9",0,20210601,"None",55.169438,23.881275,"Lithuania","Lithuania","LT",3240000
74500,"Luxembourg",NULL,"Tion Wayne, Russ","74.5K","","Body (Remix) (feat. ArrDee, E1 (3x3), ZT (3x3), Bugzy Malone, Buni, Fivio Foreign & Darkoo)","BS3HgiHPYcs","0x479545b9ca212147:0x64db60f602d392ef",0,20210601,"None",49.815273,6.129583,"Luxembourg","Luxembourg","LU",74500
95100,"Macau",NULL,"艾辰","95.1K","","错位时空","EDLanl2PC_I","0x34017ae0e235c8f3:0xc67be32cb485acf6",0,20210601,"None",22.198745,113.543873,"Macau","Macau","MO",95100
195000,"Madagascar",NULL,"LJO","195K","","Sao Hanegnina","d-yRH5vrOYQ","0x21d1a4e3ea238545:0x5244e3c1977b1388",0,20210601,"None",-18.766947,46.869107,"Madagascar","Madagascar","MG",195000
9250000,"Malaysia",NULL,"BTS","9.25M","","Butter","WMweEpGlu_U","0x3034d3975f6730af:0x745969328211cd8",0,20210601,"None",4.210484,101.975766,"Malaysia","Malaysia","MY",9250000
136000,"Maldives",NULL,"BTS","136K","","Butter","WMweEpGlu_U","0x24b599bfaafb7bbd:0x414509e181956289",0,20210601,"None",3.202778,73.22068,"Maldives","Maldives","MV",136000
190000,"Mali",NULL,"Momo Choco","190K","","Kouroube","r7ASsk3fr_Y","0xe143e881b1073cf:0xbb3a5be2a0bdcf80",0,20210601,"None",17.570692,-3.996166,"Mali","Mali","ML",190000
473000,"Malta",NULL,"Destiny Chukunyere","473K","","Je me casse (Live)","jbbc2yKnv0M","0x130e45281d8647c5:0xf582d86136be4239",0,20210601,"None",35.937496,14.375416,"Malta","Malta","MT",473000
52600,"Mauritania",NULL,"Jeeba","52.6K","","Guuy","nJXGzao-5j0","0xe80b8c314b3394f:0x83220bebd6be534e",0,20210601,"None",21.00789,-10.940835,"Mauritania","Mauritania","MR",52600
525000,"Mauritius",NULL,"Tayc","525K","","Le temps","mUTsvbridvM","0x217c504df94474c9:0x4203d9c2116bd031",0,20210601,"None",-20.348404,57.552152,"Mauritius","Mauritius","MU",525000
89300000,"Mexico",NULL,"Gera Mx, Christian Nodal","89.3M","","Botella Tras Botella","XegHMc35Bo8","0x84043a3b88685353:0xed64b4be6b099811",0,20210601,"None",23.634501,-102.552784,"Mexico","Mexico","MX",89300000
994000,"Moldova, Republic of",NULL,"3rei Sud Est, Andra","994K","","Jumătatea mea mai bună","kjsSjqTde48","0x40c97c3628b769a1:0x258119acdf53accb",0,20210601,"None",47.411631,28.369885,"Moldova","Moldova, Republic of","MD",994000
10000,"Monaco",NULL,"The Weeknd","10K","","Save Your Tears","XXYlFuWEuKI","0x12cdc26f7b3f8531:0x74f7784c3ac49cfc",0,20210601,"None",43.7384176,7.4246158,"Monaco","Monaco","MC",10000
1960000,"Mongolia",NULL,"Rokit Bay","1.96M","","Rokit Bay ft. Anouca - HYZGAARGUI","y-p21fbzsyk","0x3627050669aa6d4b:0xe0dd213937e6e096",0,20210601,"None",46.862496,103.846656,"Mongolia","Mongolia","MN",1960000
399000,"Montenegro",NULL,"Voyage (French Band), J Fado","399K","","Plesi","9d7TDm6hvlE","0x134c3217242c1fcb:0x384c9d866effd346",0,20210601,"None",42.708678,19.37439,"Montenegro","Montenegro","ME",399000
5340000,"Morocco",NULL,"Saad Lamjarred, Zouhair Bahaoui","5.34M","","لوجه التاني (Lewjah Tani)","3koMzPZTRVE","0xd0b88619651c58d:0xd9d39381c42cffc3",0,20210601,"None",31.791702,-7.09262,"Morocco","Morocco","MA",5340000
615000,"Mozambique",NULL,"Cleyton David","615K","","Coroa dos Cornos","3r9_2KZKIDc","0x18d4aceae6fd4ac5:0x12bbbfb9ae16a115",0,20210601,"None",-18.665695,35.529562,"Mozambique","Mozambique","MZ",615000
2970000,"Nepal",NULL,"Pashupati Sharma, Samjhana Bhandari","2.97M","","Sarangi Ryai Ryai","p9HX5ksjERs","0x3995e8c77d2e68cf:0x34a29abcd0cc86de",0,20210601,"None",28.394857,84.124008,"Nepal","Nepal","NP",2970000
1660000,"Netherlands",NULL,"Kinderen voor Kinderen","1.66M","","Zij aan zij","PCVjw1Qzh9o","0x47c609c3db87e4bb:0xb3a175ceffbd0a9f",0,20210601,"None",52.132633,5.291266,"Netherlands","Netherlands","NL",1660000
59100,"New Caledonia",NULL,"Yelo","59.1K","","Atem","8yhpgPXvXRo","0x6c27e2693f1a32cb:0xf6d0f68fd5937aec",0,20210601,"None",-20.904305,165.618042,"New Caledonia","New Caledonia","NC",59100
606000,"New Zealand",NULL,"Bruno Mars, Anderson .Paak, Silk Sonic","606K","","Leave The Door Open","adLGHcj_fmA","0x6d2c200e17779687:0xb1d618e2756a4733",0,20210601,"None",-40.900557,174.885971,"New Zealand","New Zealand","NZ",606000
1120000,"Nigeria",NULL,"Davido","1.12M","","La La (feat. CKay)","NM8cY2VzqkI","0x104e0baf7da48d0d:0x99a8fe4168c50bc8",0,20210601,"None",9.081999,8.675277,"Nigeria","Nigeria","NG",1120000
10000,"Northern Mariana Islands",NULL,"BTS","10K","","Butter","WMweEpGlu_U","0x66d8b13490995c51:0x9db7ebab7c3a0e32",0,20210601,"None",15.0979,145.6739,"Northern Mariana Islands","Northern Mariana Islands","MP",10000
1090000,"Norway",NULL,"TIX","1.09M","","Fallen Angel (Live)","Hj3dHbpPhaE","0x461268458f4de5bf:0xa1b03b9db864d02b",0,20210601,"None",60.472024,8.468946,"Norway","Norway","NO",1090000
1000000,"Oman",NULL,"Abdullah Al Mokhles","1M","","اشكر جمالك","0DRxVDWF9r8","0x3dd69f66a9d59bbf:0x3a064c7665b1a817",0,20210601,"None",21.4735329,55.975413,"Oman","Oman","OM",1000000
15700000,"Pakistan",NULL,"Jubin Nautiyal","15.7M","","Lut Gaye (feat. Emraan Hashmi)","sCbbMZ-q4-I","0x38db52d2f8fd751f:0x46b7a1f7e614925c",0,20210601,"None",30.375321,69.345116,"Pakistan","Pakistan","PK",15700000
2680000,"Paraguay",NULL,"Sebastián Yatra, Myke Towers","2.68M","","Pareja Del Año","SRm2Ch4oFWs","0x945c083490f13d63:0xb3faff611d582ef3",0,20210601,"None",-23.442503,-58.443832,"Paraguay","Paraguay","PY",2680000
31200000,"Philippines",NULL,"Zack Tabudlo","31.2M","","Binibini","DhzDmhytrTI","0x324053215f87de63:0x784790ef7a29da57",0,20210601,"None",12.879721,121.774017,"Philippines","Philippines","PH",31200000
18900000,"Poland",NULL,"Sobel, Piotrek Lewandowski","18.9M","","Fiołkowe Pole","1rTV7DCnF3Y","0x47009964a4640bbb:0x97573ca49cc55ea",0,20210601,"None",51.919438,19.145136,"Poland","Poland","PL",18900000
3550000,"Portugal",NULL,"Nininho, --","3.55M","","Gosto de Ti","uMwBTzpGmhs","0xb32242dbf4226d5:0x2ab84b091c4ef041",0,20210601,"None",39.399872,-8.224454,"Portugal","Portugal","PT",3550000
395000,"Qatar",NULL,"BTS","395K","","Butter","WMweEpGlu_U","0x3e45c534ffdce87f:0x1cfa88cf812b4032",0,20210601,"None",25.354826,51.183884,"Qatar","Qatar","QA",395000
13800000,"Romania",NULL,"Costel Biju","13.8M","","Am Platit Sa-Mi Duc Regina","kGQeFzjpMHc","0x40b1ff26958976c3:0x84ef4f92a804b194",0,20210601,"None",45.943161,24.96676,"Romania","Romania","RO",13800000
17900000,"Russia",NULL,"Khabib","17.9M","","Ягода малинка","Rt2zZSaOFtw","0x453c569a896724fb:0x1409fdf86611f613",0,20210601,"None",61.52401,105.318756,"Russia","Russia","RU",17900000
326000,"Rwanda",NULL,"Davis D","326K","","Itara","6nxbUjkCH8A","0x19c29654e73840e3:0x7490b026cbcca103",0,20210601,"None",-1.940278,29.873888,"Rwanda","Rwanda","RW",326000
33500,"Saint Kitts and Nevis",NULL,"Byron Messia","33.5K","","Who? (feat. Tuggy, Peppers & Laffy)","-gozankpJdk","0x8c12196ec68a720d:0xdee99ac69a1d86e8",0,20210601,"None",17.357822,-62.782998,"St Kitts & Nevis","Saint Kitts and Nevis","KN",33500
72000,"Saint Lucia",NULL,"Olamide","72K","","Infinity (feat. Omah Lay)","Pu69SyqwPGg","0x8c406065f12da31d:0x6e7486c4e8399df5",0,20210601,"None",13.909444,-60.978893,"St Lucia","Saint Lucia","LC",72000
47300,"Saint Vincent and the Grenadines",NULL,"Nation Boss","47.3K","","Humans","vnSf_-k3OgE","0x8c40ace29e3935bb:0x31fdd3e88dd2a1b1",0,20210601,"None",12.984305,-61.287228,"St Vincent and the Grenadines","Saint Vincent and the Grenadines","VC",47300
24000000,"Saudi Arabia",NULL,"Abdullah Al Mokhles","24M","","اشكر جمالك","0DRxVDWF9r8","0x15e7b33fe7952a41:0x5960504bc21ab69b",0,20210601,"None",23.885942,45.079162,"Saudi Arabia","Saudi Arabia","SA",24000000
1630000,"Senegal",NULL,"Jeeba","1.63M","","Guuy","nJXGzao-5j0","0xec172f5b3c5bb71:0x5a46a55099615940",0,20210601,"None",14.497401,-14.452362,"Senegal","Senegal","SN",1630000
3200000,"Serbia",NULL,"Voyage (French Band), J Fado","3.2M","","Plesi","9d7TDm6hvlE","0x47571ddff2898095:0x55e50ea3723865d",0,20210601,"None",44.016521,21.005859,"Serbia","Serbia","RS",3200000
1930000,"Singapore",NULL,"BTS","1.93M","","Butter","WMweEpGlu_U","0x31da11238a8b9375:0x887869cf52abf5c4",0,20210601,"None",1.352083,103.819836,"Singapore","Singapore","SG",1930000
10500,"Sint Maarten",NULL,"Skillibeng","10.5K","","Crocodile Teeth","rMWdX1_cEXg","0x8c0e6e62d6f890c3:0x728b2cc226338f42",0,20210601,"None",18.04248,-63.05483,"Sint Maarten","Sint Maarten","SX",10500
622000,"Slovakia",NULL,"Ego, Stylko","622K","","Zatmenie","cZJMUm3qKt4","0x471460b9ae7cc67f:0xcd6b6167b1723a7d",0,20210601,"None",48.669026,19.699024,"Slovakia","Slovakia","SK",622000
378000,"Slovenia",NULL,"Luka Basi","378K","","Ljubav Mog Života","680SLJMNJUs","0x476524e75e968361:0xe740451e25e2d465",0,20210601,"None",46.151241,14.995463,"Slovenia","Slovenia","SI",378000
692000,"Somalia",NULL,"Sharma Boy","692K","","20 jir ka adag bir","pWG3g6ZL3kk","0x181d2ea7ecd15b83:0x9e393ace5ce9e5be",0,20210601,"None",5.152149,46.199616,"Somalia","Somalia","SO",692000
2130000,"South Africa",NULL,"DJ Maphorisa, Tyler ICU, Sir Trill, Daliwonga, Kabza De Small","2.13M","","Banyana","xPYCtAl7iq8","0x1c34a689d9ee1251:0xe85d630c1fa4e8a0",0,20210601,"None",-30.559482,22.937506,"South Africa","South Africa","ZA",2130000
2350000,"Sri Lanka",NULL,"Shashika Nisansala","2.35M","","Chandra Paayanna","JbqU2m7TfiM","0x3ae2593cf65a1e9d:0xe13da4b400e2d38c",0,20210601,"None",7.873054,80.771797,"Sri Lanka","Sri Lanka","LK",2350000
346000,"Sudan",NULL,"","346K","","جديد قتادة وسوهندا - شاغل التلفون","f9E7MNRQgIg","0x15d91cc41072b195:0xd2bf70462a612b37",0,20210601,"None",12.862807,30.217636,"Sudan","Sudan","SD",346000
160000,"Suriname",NULL,"Lil Young, Baad Jury & WESTLND","160K","","Trap Star","kVHteVZqvEE","0x8d0836d5d9d3d551:0x1037e1c0712936b2",0,20210601,"None",3.919305,-56.027783,"Suriname","Suriname","SR",160000
957000,"Sweden",NULL,"Tion Wayne, Russ","957K","","Body (Remix) (feat. ArrDee, E1 (3x3), ZT (3x3), Bugzy Malone, Buni, Fivio Foreign & Darkoo)","BS3HgiHPYcs","0x465cb2396d35f0f1:0x22b8eba28dad6f62",0,20210601,"None",60.128161,18.643501,"Sweden","Sweden","SE",957000
813000,"Switzerland",NULL,"Nathan Evans","813K","","Wellerman (Sea Shanty)","RSx1xWn0RJ0","0x478c64ef6f596d61:0x5c56b5110fcb7b15",0,20210601,"None",46.818188,8.227512,"Switzerland","Switzerland","CH",813000
1620000,"Syrian Arab Republic",NULL,"Ruby","1.62M","","حته تانيه (Hetta Tanya)","gbt6cTZSKgo","0x1518e6dc413cc6a7:0x877546f4882af620",0,20210601,"None",34.802075,38.996815,"Syria","Syrian Arab Republic","SY",1620000
9080000,"Taiwan",NULL,"EggPlantEgg","9.08M","","愛情你比我想的閣較偉大","0rp3pP2Xwhs","0x346ef3065c07572f:0xe711f004bf9c5469",0,20210601,"None",23.69781,120.960515,"Taiwan","Taiwan","TW",9080000
1560000,"Tanzania, United Republic of",NULL,"Anjella","1.56M","","Nobody","-NCqC_BoUXc","0x184b51314869a111:0x885a17314bc1c430",0,20210601,"None",-6.369028,34.888822,"Tanzania","Tanzania, United Republic of","TZ",1560000
107000000,"Thailand",NULL,"Sprite, GUYGEEGEE","107M","","ทน","wNO6kMJB63I","0x304d8df747424db1:0x9ed72c880757e802",0,20210601,"None",15.870032,100.992541,"Thailand","Thailand","TH",107000000
1000000,"The Former Yugoslav Republic of Macedonia",NULL,"Voyage (French Band), J Fado","1M","","Plesi","9d7TDm6hvlE","0x1354159f70bc4809:0xe0f25ad6c81fc5b1",0,20210601,"None",41.608635,21.745275,"Macedonia (FYROM)","The Former Yugoslav Republic of Macedonia","MK",1000000
243000,"Togo",NULL,"Chidinma","243K","","Jehovah Overdo","jgcXR4U4kEc","0x1023e1c113185419:0xfaae5b301ad19360",0,20210601,"None",8.619543,0.824782,"Togo","Togo","TG",243000
492000,"Trinidad and Tobago",NULL,"Medz Boss","492K","","My Life","IJzm6X5C4nE","0x8c3607976350b6c5:0xff082855c639f127",0,20210601,"None",10.691803,-61.222503,"Trinidad and Tobago","Trinidad and Tobago","TT",492000
9250000,"Tunisia",NULL,"Mehdi Mouelhi","9.25M","","El Foundou","v9YaVWH84p4","0x125595448316a4e1:0x3a84333aaa019bef",0,20210601,"None",33.886917,9.537499,"Tunisia","Tunisia","TN",9250000
31100000,"Turkey",NULL,"Uzi","31.1M","","Krvn","8OQMEeOXGWI","0x14b0155c964f2671:0x40d9dbd42a625f2a",0,20210601,"None",38.963745,35.243322,"Turkey","Turkey","TR",31100000
16600,"Turks and Caicos Islands",NULL,"K-Dilak, Bedjine","16.6K","","Engra","dQAiajg-B60","0x894b5f55bebb6b75:0x7e11c780028dc1de",0,20210601,"None",21.694025,-71.797928,"TKCA 1ZZ, Turks and Caicos Islands","Turks and Caicos Islands","TC",16600
7910000,"Ukraine",NULL,"Go_A","7.91M","","SHUM (Live)","lqvzDkgok_g","0x40d1d9c154700e8f:0x1068488f64010",0,20210601,"None",48.379433,31.1655799,"Ukraine","Ukraine","UA",7910000
1530000,"United Arab Emirates",NULL,"BTS","1.53M","","Butter","WMweEpGlu_U","0x3e5e48dfb1ab12bd:0x33d32f56c0080aa7",0,20210601,"None",23.424076,53.847818,"United Arab Emirates","United Arab Emirates","AE",1530000
17100000,"United Kingdom",NULL,"Tion Wayne, Russ","17.1M","","Body (Remix) (feat. ArrDee, E1 (3x3), ZT (3x3), Bugzy Malone, Buni, Fivio Foreign & Darkoo)","BS3HgiHPYcs","0x25a3b1142c791a9:0xc4f8a0433288257a",0,20210601,"None",55.378051,-3.435973,"United Kingdom","United Kingdom","GB",17100000
32800000,"United States",NULL,"Olivia Rodrigo","32.8M","","good 4 u","gNi_6U5Pm_o","0x54eab584e432360b:0x1c3bb99243deb742",0,20210601,"None",37.09024,-95.712891,"United States","United States","US",32800000
4040000,"Uruguay",NULL,"TINI, Maria Becerra","4.04M","","Miénteme","mmRBXjVENDQ","0x9575073afb5fde09:0x4a5596616016524a",0,20210601,"None",-32.522779,-55.765835,"Uruguay","Uruguay","UY",4040000
4020000,"Uzbekistan",NULL,"Talib Tale, Zeynəb Həsəni","4.02M","","Səbr Elə (Acoustic)","5vppJrWii4k","0x38ae8b20a5d676b1:0xca0a6dad7e841e20",0,20210601,"None",41.377491,64.585262,"Uzbekistan","Uzbekistan","UZ",4020000
3710000,"Venezuela",NULL,"Sebastián Yatra, Myke Towers","3.71M","","Pareja Del Año","SRm2Ch4oFWs","0x8c2853cb36cbd801:0xdca0f2587cd54dd3",0,20210601,"None",6.42375,-66.58973,"Venezuela","Venezuela","VE",3710000
79200000,"Vietnam",NULL,"Sơn Tùng M-TP","79.2M","","Muộn Rồi Mà Sao Còn","xypzmu5mMPY","0x31157a4d736a1e5f:0xb03bb0c9e2fe62be",0,20210601,"None",14.058324,108.277199,"Vietnam","Vietnam","VN",79200000
18900,"Virgin Islands (US)",NULL,"Mooski","18.9K","","Track Star","KPfcycMj8BE","0x8c051065f2daacb9:0xf91d891d1bc51c05",0,20210601,"None",18.335765,-64.896335,"U.S. Virgin Islands","Virgin Islands (US)","VI",18900
303000,"Yemen",NULL,"Abdullah Al Mokhles","303K","","اشكر جمالك","0DRxVDWF9r8","0x1603dbac7c34bc5f:0x92f129377eae77ae",0,20210601,"None",15.552727,48.516388,"Yemen","Yemen","YE",303000
